UNITID_P,INSTNM,OPEID,BRANCH,Address,City,State,ZIP,sector_cd,Sector_desc,men_total,women_total,Total,MURD20,NEG_M20,RAPE20,FONDL20,INCES20,STATR20,ROBBE20,AGG_A20,BURGLA20,VEHIC20,ARSON20,MURD21,NEG_M21,RAPE21,FONDL21,INCES21,STATR21,ROBBE21,AGG_A21,BURGLA21,VEHIC21,ARSON21,MURD22,NEG_M22,RAPE22,FONDL22,INCES22,STATR22,ROBBE22,AGG_A22,BURGLA22,VEHIC22,ARSON22,FILTER20,FILTER21,FILTER22,Latitude,Longitude
100654001,Alabama A & M University,100200,Main Campus,4900 MERIDIAN ST,NORMAL,AL,35762,1,"Public, 4-year or above",2369.0,3638.0,6007.0,0.0,0.0,0.0,0.0,0.0,0.0,0.0,0.0,0.0,0.0,0.0,0.0,0.0,0.0,0.0,0.0,0.0,0.0,0.0,0.0,0.0,0.0,0.0,0.0,1.0,0.0,0.0,0.0,0.0,0.0,1.0,0.0,0.0,1,1,1,,
100663001,University of Alabama at Birmingham,105200,Main Campus,"ADMINISTRATION BLDG SUITE 1070, 701 20th Street So",BIRMINGHAM,AL,352940110,1,"Public, 4-year or above",7903.0,13736.0,21639.0,0.0,0.0,0.0,0.0,0.0,0.0,0.0,0.0,2.0,0.0,0.0,0.0,0.0,0.0,0.0,0.0,0.0,0.0,0.0,0.0,0.0,0.0,0.0,0.0,0.0,0.0,0.0,0.0,0.0,0.0,0.0,0.0,0.0,1,1,1,,
100663002,University of Alabama at Birmingham,105200,Huntsville Regional Medical Campus,301 Governors Drive SW,Huntsville,AL,35801,1,"Public, 4-year or above",7903.0,13736.0,21639.0,,,,,,,,,,,,,,,,,,,,,,,,,,,,,,,,,,1,1,1,34.719816,-86.582288
100706001,University of Alabama in Huntsville,105500,Main Campus,301 SPARKMAN DR,HUNTSVILLE,AL,35899,1,"Public, 4-year or above",5333.0,3904.0,9237.0,0.0,0.0,0.0,0.0,0.0,0.0,0.0,0.0,0.0,0.0,0.0,0.0,0.0,0.0,0.0,0.0,0.0,1.0,0.0,0.0,0.0,0.0,0.0,0.0,1.0,0.0,0.0,0.0,0.0,0.0,0.0,1.0,0.0,1,1,1,34.7197912,-86.6440302
100724001,Alabama State University,100500,Main Campus,915 SOUTH JACKSON ST,MONTGOMERY,AL,361040271,1,"Public, 4-year or above",1347.0,2481.0,3828.0,0.0,0.0,0.0,0.0,0.0,0.0,0.0,0.0,0.0,0.0,0.0,0.0,0.0,0.0,0.0,0.0,0.0,0.0,0.0,0.0,0.0,0.0,0.0,0.0,0.0,0.0,0.0,0.0,0.0,0.0,0.0,0.0,0.0,1,1,1,,
100751001,The University of Alabama,105100,Main Campus,1110 Jackson Ave,TUSCALOOSA,AL,354870180,1,"Public, 4-year or above",16506.0,22138.0,38644.0,0.0,0.0,0.0,0.0,0.0,0.0,0.0,0.0,1.0,0.0,0.0,0.0,0.0,0.0,1.0,0.0,1.0,0.0,0.0,1.0,1.0,0.0,0.0,0.0,0.0,0.0,0.0,0.0,0.0,1.0,3.0,1.0,0.0,1,1,1,,
100751002,The University of Alabama,105100,University of Alabama Gadsden Center,P.O. Box 1280,Gadsden,AL,359021280,1,"Public, 4-year or above",16506.0,22138.0,38644.0,,,,,,,,,,,,,,,,,,,,,,,,,,,,,,,,,,1,1,1,45.6662045,8.7952074
100760001,Central Alabama Community College,100700,Alexander City Campus,1675 Cherokee Rd,Alexander City,AL,35010,4,"Public, 2-year",751.0,1026.0,1777.0,0.0,0.0,0.0,0.0,0.0,0.0,0.0,0.0,0.0,0.0,0.0,0.0,0.0,0.0,0.0,0.0,0.0,0.0,0.0,0.0,0.0,0.0,0.0,0.0,0.0,0.0,0.0,0.0,0.0,0.0,0.0,0.0,0.0,1,1,1,,
100760002,Central Alabama Community College,100700,Childersburg Campus,34091 Highway 280,Childersburg,AL,35044,4,"Public, 2-year",751.0,1026.0,1777.0,,,,,,,,,,,,,,,,,,,,,,,,,,,,,,,,,,1,1,1,,
100760003,Central Alabama Community College,100700,Talladega Campus,1009 South Street East,Talladega,AL,35160,4,"Public, 2-year",751.0,1026.0,1777.0,,,,,,,,,,,,,,,,,,,,,,,,,,,,,,,,,,1,1,1,30.439728244897957,-91.17768932653061
100760004,Central Alabama Community College,100700,Prattville Campus,1320 Old Ridge Road  ,Prattville,AL,36066,4,"Public, 2-year",751.0,1026.0,1777.0,,,,,,,,,,,,,,,,,,,,,,,,,,,,,,,,,,1,1,1,32.503367519277106,-86.42768109953543
100812001,Athens State University,100800,Athens State University Main Campus,300 N BEATY ST,ATHENS,AL,35611,1,"Public, 4-year or above",887.0,2007.0,2894.0,0.0,0.0,0.0,0.0,0.0,0.0,0.0,0.0,0.0,0.0,0.0,0.0,0.0,0.0,0.0,0.0,0.0,0.0,0.0,0.0,0.0,0.0,0.0,0.0,0.0,0.0,0.0,0.0,0.0,0.0,0.0,0.0,0.0,1,1,1,30.933398,-93.986396
100830001,Auburn University at Montgomery,831000,Auburn University Montgomery,7400 EAST DRIVE,MONTGOMERY,AL,361173596,1,"Public, 4-year or above",1900.0,3209.0,5109.0,0.0,0.0,0.0,0.0,0.0,0.0,0.0,0.0,2.0,0.0,0.0,0.0,0.0,0.0,0.0,0.0,0.0,0.0,0.0,3.0,0.0,0.0,0.0,0.0,0.0,0.0,0.0,0.0,0.0,0.0,0.0,0.0,0.0,1,1,1,32.3709721,-86.1771873
100858001,Auburn University,100900,Auburn University,182 South College Street,Auburn,AL,36849,1,"Public, 4-year or above",15678.0,16086.0,31764.0,0.0,0.0,0.0,0.0,0.0,0.0,0.0,1.0,4.0,1.0,0.0,0.0,0.0,1.0,2.0,0.0,0.0,0.0,1.0,1.0,0.0,0.0,0.0,0.0,0.0,0.0,0.0,0.0,0.0,4.0,3.0,0.0,0.0,1,1,1,32.60471105,-85.48279062089341
100858002,Auburn University,100900,Joseph S Bruno Auburn Abroad Italy,Via del Parco 149,Ariccia,,00072,1,"Public, 4-year or above",15678.0,16086.0,31764.0,,,,,,,,,,,,,,,,,,,,,,,,,,,,,,,,,,1,1,1,,
100858003,Auburn University,100900,Solon Dixon Forestry Education Center,12130 Dixon Center Road,Andalusia,AL,36420,1,"Public, 4-year or above",15678.0,16086.0,31764.0,,,,,,,,,,,,,,,,,,,,,,,,,,,,,,,,,,1,1,1,,
100858004,Auburn University,100900,Rural Studio,8448  AL Hwy 61,Newbern,AL,36765,1,"Public, 4-year or above",15678.0,16086.0,31764.0,,,,,,,,,,,,,,,,,,,,,,,,,,,,,,,,,,1,1,1,,
100858005,Auburn University,100900,Harris Early Learning Center,1413 7th Avenue North,Birmingham,AL,35203,1,"Public, 4-year or above",15678.0,16086.0,31764.0,,,,,,,,,,,,,,,,,,,,,,,,,,,,,,,,,,1,1,1,47.512984994262276,-111.28296014262004
100858006,Auburn University,100900,Auburn University Regional Airport,2150 Mike Hubbard Blvd,Auburn,AL,36830,1,"Public, 4-year or above",15678.0,16086.0,31764.0,,,,,,,,,,,,,,,,,,,,,,,,,,,,,,,,,,1,1,1,32.6118107,-85.43694166226194
100858007,Auburn University,100900,E W Shell Fisheries Center North,2101 North College Street,Auburn,AL,36830,1,"Public, 4-year or above",15678.0,16086.0,31764.0,0.0,0.0,0.0,0.0,0.0,0.0,0.0,0.0,0.0,0.0,0.0,0.0,0.0,0.0,0.0,0.0,0.0,0.0,0.0,0.0,0.0,0.0,0.0,0.0,0.0,0.0,0.0,0.0,0.0,0.0,0.0,0.0,0.0,1,1,1,29.520483,-97.456019
100858008,Auburn University,100900,Charles C. Miller Poultry Research and Education Center,1088 Auburn Lakes Road,Auburn,AL,36830,1,"Public, 4-year or above",15678.0,16086.0,31764.0,,,,,,,,,,,,,,,,,,,,,,,,,,,,,,,,,,1,1,1,32.68249,-85.508237
100858010,Auburn University,100900,Harrison College of Pharmacy - Mobile,"650 Clinic Drive, Room 2100",Mobile,AL,36688,1,"Public, 4-year or above",15678.0,16086.0,31764.0,,,,,,,,,,,,,,,,,,,,,,,,,,,,,,,,,,1,1,1,,
100858011,Auburn University,100900,Harrison College of Pharmacy - Montgomery,101 South Union Street,Montgomery,AL,36104,1,"Public, 4-year or above",15678.0,16086.0,31764.0,,,,,,,,,,,,,,,,,,,,,,,,,,,,,,,,,,1,1,1,41.536033,-88.5801812
100858012,Auburn University,100900,The Center for Architecture and Urban Studies,221 20th Street North,Birmingham,AL,35203,1,"Public, 4-year or above",15678.0,16086.0,31764.0,,,,,,,,,,,,,,,,,,,,,,,,,,,,,,,,,,1,1,1,,
100858013,Auburn University,100900,Auburn University Shellfish Laboratory,150 Aggasiz Street,Dauphin Island,AL,36528,1,"Public, 4-year or above",15678.0,16086.0,31764.0,,,,,,,,,,,,,,,,,,,,,,,,,,,,,,,,,,1,1,1,,
100858014,Auburn University,100900,Futures Studio,301 Conti Street,Mobile,AL,36688,1,"Public, 4-year or above",15678.0,16086.0,31764.0,,,,,,,,,,,,,,,,,,,,,,,,,,,,,,,,,,1,1,1,31.32661,-89.307424
100858015,Auburn University,100900,Harrison College of Pharmacy - Huntsville,"301 Governors Drive, Room 385",Huntsville,AL,35801,1,"Public, 4-year or above",15678.0,16086.0,31764.0,,,,,,,,,,,,,,,,,,,,,,,,,,,,,,,,,,0,1,1,,
100937001,Birmingham-Southern College,101200,Birmingham-Southern College,900 Arkadelphia Road,Birmingham,AL,35254,2,"Private nonprofit, 4-year or above",512.0,463.0,975.0,,,,,,,,,,,,,,,,,,,,,,,,,,,,,,,,,,1,1,1,30.834629659588977,-92.92426639711137
101028001,Chattahoochee Valley Community College,1218200,Main Campus,2602 COLLEGE DR,PHENIX CITY,AL,36869,4,"Public, 2-year",560.0,1081.0,1641.0,,,,,,,,,,,,,,,,,,,,,,,,,,,,,,,,,,1,1,1,,
101116001,South University-Montgomery,1303906,South University - Montgomery,5355 Vaughn Road,MONTGOMERY,AL,361161120,3,"Private for-profit, 4-year or above",49.0,312.0,361.0,,,,,,,,,,,,,,,,,,,,,,,,,,,,,,,,,,1,1,1,33.81597539086642,-84.82167939961734
101143001,Enterprise State Community College,101500,Main Campus,600 PLAZA DR,ENTERPRISE,AL,363301300,4,"Public, 2-year",1011.0,999.0,2010.0,,,,,,,,,,,,,,,,,,,,,,,,,,,,,,,,,,1,1,1,,
101143002,Enterprise State Community College,101500,Alabama Aviation Center - Ozark,3405 Highway 231 South,Ozark,AL,36360,4,"Public, 2-year",1011.0,999.0,2010.0,,,,,,,,,,,,,,,,,,,,,,,,,,,,,,,,,,1,1,1,35.7698129,-86.4027322
101161001,Coastal Alabama Community College,106000,Coastal Alabama Community College Main Campus - Bay Minette,1900 U.S. Hwy 31 South,Bay Minette,AL,365072698,4,"Public, 2-year",2872.0,3928.0,6800.0,0.0,0.0,0.0,0.0,0.0,0.0,0.0,0.0,0.0,0.0,0.0,0.0,0.0,0.0,0.0,0.0,0.0,0.0,0.0,0.0,0.0,0.0,0.0,0.0,0.0,0.0,0.0,0.0,0.0,0.0,0.0,0.0,0.0,1,1,1,,
101161002,Coastal Alabama Community College,106000,Coastal Alabama Community College - Fairhope Campus,440 Fairhope Avenue,Fairhope,AL,36532,4,"Public, 2-year",2872.0,3928.0,6800.0,0.0,0.0,0.0,0.0,0.0,0.0,0.0,0.0,0.0,0.0,0.0,0.0,0.0,0.0,0.0,0.0,0.0,0.0,0.0,0.0,0.0,0.0,0.0,0.0,0.0,0.0,0.0,0.0,0.0,0.0,0.0,0.0,0.0,1,1,1,30.52295481632653,-87.90253659183674
101161003,Coastal Alabama Community College,106000,Coastal Alabama Community College - Gulf Shores Campus,3301 Gulf Shores Parkway,Gulf Shores,AL,36542,4,"Public, 2-year",2872.0,3928.0,6800.0,,,,,,,,,,,,,,,,,,,,,,,,,,,,,,,,,,1,1,1,30.298169,-87.683249
101161004,Coastal Alabama Community College,106000,Coastal Alabama Community College - Brewton Campus,220 ALCO DR,BREWTON,AL,36426,4,"Public, 2-year",2872.0,3928.0,6800.0,,,,,,,,,,,,,,,,,,,,,,,,,,,,,,,,,,1,1,1,31.1022138,-87.0862756
101161005,Coastal Alabama Community College,106000,Coastal Alabama Community College - Atmore Campus,6574 Highway 21,Atmore,AL,36502,4,"Public, 2-year",2872.0,3928.0,6800.0,0.0,0.0,0.0,0.0,0.0,0.0,0.0,0.0,0.0,0.0,0.0,0.0,0.0,0.0,0.0,0.0,0.0,0.0,0.0,0.0,0.0,0.0,0.0,0.0,0.0,0.0,0.0,0.0,0.0,0.0,0.0,0.0,0.0,1,1,1,44.5099964,-81.319401
101161006,Coastal Alabama Community College,106000,Coastal Alabama Community College - Monroeville Campus,2800 South Alabama Avenue,MONROEVILLE,AL,364602000,4,"Public, 2-year",2872.0,3928.0,6800.0,,,,,,,,,,,,,,,,,,,,,,,,,,,,,,,,,,1,1,1,31.4890523,-87.324707
101161007,Coastal Alabama Community College,106000,Coastal Alabama Community College - Thomasville campus,30755 Hwy 43 South,Thomasville,AL,367842000,4,"Public, 2-year",2872.0,3928.0,6800.0,,,,,,,,,,,,,,,,,,,,,,,,,,,,,,,,,,1,1,1,,
101161008,Coastal Alabama Community College,106000,Coastal Alabama Community College - GILBERTOWN CAMPUS,251 College Street,Gilbertown,AL,36908,4,"Public, 2-year",2872.0,3928.0,6800.0,,,,,,,,,,,,,,,,,,,,,,,,,,,,,,,,,,1,1,1,,
101161009,Coastal Alabama Community College,106000,Coastal Alabama Community College - JACKSON CAMPUS,235 College Avenue,Jackson,AL,36545,4,"Public, 2-year",2872.0,3928.0,6800.0,,,,,,,,,,,,,,,,,,,,,,,,,,,,,,,,,,1,1,1,,
101161011,Coastal Alabama Community College,106000,Alabama Aviation Center - Mobile,1975 Avenue C,Mobile,AL,366151403,4,"Public, 2-year",2872.0,3928.0,6800.0,,,,,,,,,,,,,,,,,,,,,,,,,,,,,,,,,,1,1,1,30.065535844660193,-94.10080796116505
101189001,Faulkner University,100300,Main Campus,5345 ATLANTA HWY,MONTGOMERY,AL,361093378,2,"Private nonprofit, 4-year or above",1153.0,1664.0,2817.0,0.0,0.0,0.0,0.0,0.0,0.0,0.0,0.0,0.0,0.0,0.0,0.0,0.0,0.0,0.0,0.0,0.0,0.0,0.0,0.0,0.0,0.0,0.0,0.0,0.0,0.0,0.0,0.0,1.0,0.0,0.0,0.0,0.0,1,1,1,32.3854781,-86.21710609904724
101189002,Faulkner University,100300,FAULKNER UNIVERSITY-BIRMINGHAM,4524 Southlake Parkway,Hoover,AL,352444506,2,"Private nonprofit, 4-year or above",1153.0,1664.0,2817.0,,,,,,,,,,,,,,,,,,,,,,,,,,,,,,,,,,1,1,1,33.36063292043012,-86.7744618956012
101189003,Faulkner University,100300,FAULKNER UNIVERSITY-HUNTSVILLE,420 WYNN DR,HUNTSVILLE,AL,358051963,2,"Private nonprofit, 4-year or above",1153.0,1664.0,2817.0,,,,,,,,,,,,,,,,,,,,,,,,,,,,,,,,,,1,1,1,33.406997735364335,-84.26525225081595
101189004,Faulkner University,100300,FAULKNER UNIVERSITY-MOBILE,3943 Airport Boulevard,MOBILE,AL,366084112,2,"Private nonprofit, 4-year or above",1153.0,1664.0,2817.0,,,,,,,,,,,,,,,,,,,,,,,,,,,,,,,,,,1,1,1,,
101240001,Gadsden State Community College,101700,Gadsden State Community College,PO Box 227,GADSDEN,AL,359020227,4,"Public, 2-year",1664.0,2688.0,4352.0,,,,,,,,,,,,,,,,,,,,,,,,,,,,,,,,,,1,1,1,,
101277001,New Beginning College of Cosmetology,4187200,Main Campus,421 Martling Rd,Albertville,AL,35951,9,"Private for-profit, less-than 2-year",0.0,45.0,45.0,,,,,,,,,,,,,,,,,,,,,,,,,,,,,,,,,,1,1,1,34.277689385322724,-86.19718984818755
101286001,George C Wallace Community College-Dothan,101800,Wallace Campus,1141 Wallace Drive,DOTHAN,AL,363039234,4,"Public, 2-year",1195.0,2637.0,3832.0,,,,,,,,,,,,,,,,,,,,,,,,,,,,,,,,,,1,1,1,31.3175843,-85.46573931088687
101286004,George C Wallace Community College-Dothan,101800,Sparks Campus,3235 South Eufaula Ave.,Eufaula,AL,36027,4,"Public, 2-year",1195.0,2637.0,3832.0,,,,,,,,,,,,,,,,,,,,,,,,,,,,,,,,,,1,1,1,,
101295001,George C Wallace State Community College-Hanceville,787100,Main Campus,801 Main Street NW,HANCEVILLE,AL,35077,4,"Public, 2-year",2172.0,3793.0,5965.0,,,,,,,,,,,,,,,,,,,,,,,,,,,,,,,,,,1,1,1,,
101301001,George C Wallace State Community College-Selma,569900,Main Campus,3000 EARL GOODWIN PARKWAY,SELMA,AL,367032808,4,"Public, 2-year",778.0,1082.0,1860.0,,,,,,,,,,,,0.0,0.0,0.0,0.0,0.0,0.0,0.0,0.0,0.0,0.0,0.0,,,,,,,,,,,,1,1,1,32.439776,-87.014435
101301002,George C Wallace State Community College-Selma,569900,The New Era Building ,918 South Cedar Street,Demopolis,AL,36732,4,"Public, 2-year",778.0,1082.0,1860.0,,,,,,,,,,,,0.0,0.0,0.0,0.0,0.0,0.0,0.0,0.0,0.0,0.0,0.0,,,,,,,,,,,,1,1,1,,
101301003,George C Wallace State Community College-Selma,569900,The Demopolis Campus,186 Fields of Dreams Dr,Gallion,AL,36742,4,"Public, 2-year",778.0,1082.0,1860.0,,,,,,,,,,,,0.0,0.0,0.0,0.0,0.0,0.0,0.0,0.0,0.0,0.0,0.0,,,,,,,,,,,,1,1,1,,
101365001,Herzing University-Birmingham,962107,Main Campus,280 WEST VALLEY AVENUE,BIRMINGHAM,AL,35209,2,"Private nonprofit, 4-year or above",126.0,452.0,578.0,,,,,,,,,,,,,,,,,,,,,,,,,,,,,,,,,,1,1,1,,
101435001,Huntingdon College,101900,Main Campus,1500 East Fairview Avenue,Montgomery,AL,361062148,2,"Private nonprofit, 4-year or above",454.0,363.0,817.0,0.0,0.0,0.0,0.0,0.0,0.0,0.0,0.0,0.0,0.0,0.0,0.0,0.0,0.0,0.0,0.0,0.0,0.0,0.0,0.0,0.0,0.0,0.0,0.0,0.0,0.0,0.0,0.0,0.0,0.0,0.0,0.0,0.0,1,1,1,,
101453001,Heritage Christian University,2199700,Main Campus,"3625 HELTON DR, PO Box HCU",FLORENCE,AL,35630,2,"Private nonprofit, 4-year or above",124.0,19.0,143.0,,,,,,,,,,,,,,,,,,,,,,,,,,,,,,,,,,1,1,1,,
101462001,J. F. Drake State Community and Technical College,526000,Main Campus,3421 MERIDIAN ST N,HUNTSVILLE,AL,358111544,4,"Public, 2-year",388.0,588.0,976.0,0.0,0.0,0.0,0.0,0.0,0.0,0.0,0.0,0.0,0.0,0.0,0.0,0.0,0.0,0.0,0.0,0.0,0.0,0.0,0.0,0.0,0.0,0.0,0.0,0.0,0.0,0.0,0.0,0.0,0.0,0.0,0.0,0.0,1,1,1,,
101471001,J F Ingram State Technical College,3002500,J.F. Ingram State Technical College,5375 Ingram Rd,Deatsville,AL,36022,4,"Public, 2-year",671.0,97.0,768.0,,,,,,,,,,,,,,,,,,,,,,,,,,,,,,,,,,1,1,1,,
101480001,Jacksonville State University,102000,Main Campus,700 Pelham Road North,Jacksonville,AL,36265,1,"Public, 4-year or above",3839.0,5793.0,9632.0,0.0,0.0,0.0,0.0,0.0,0.0,0.0,0.0,0.0,0.0,0.0,0.0,0.0,0.0,0.0,0.0,0.0,0.0,0.0,0.0,0.0,0.0,0.0,0.0,0.0,0.0,0.0,0.0,0.0,0.0,0.0,0.0,0.0,1,1,1,,
101505001,Jefferson State Community College,102200,Jefferson,2601 CARSON RD,BIRMINGHAM,AL,352153098,4,"Public, 2-year",3090.0,5341.0,8431.0,0.0,0.0,0.0,0.0,0.0,0.0,0.0,0.0,0.0,0.0,0.0,0.0,0.0,0.0,0.0,0.0,0.0,0.0,0.0,1.0,0.0,0.0,0.0,0.0,0.0,0.0,0.0,0.0,0.0,0.0,0.0,0.0,0.0,1,1,1,,
101505002,Jefferson State Community College,102200,Shelby Campus,4600 Valleydale Road,Birmingham,AL,35242,4,"Public, 2-year",3090.0,5341.0,8431.0,,,,,,,,,,,,0.0,0.0,0.0,0.0,0.0,0.0,0.0,0.0,0.0,0.0,0.0,0.0,0.0,0.0,0.0,0.0,0.0,0.0,0.0,0.0,0.0,0.0,1,1,1,,
101505003,Jefferson State Community College,102200,St. Clair Campus,500 College Drive,Pell City,AL,35125,4,"Public, 2-year",3090.0,5341.0,8431.0,,,,,,,,,,,,0.0,0.0,0.0,0.0,0.0,0.0,0.0,0.0,0.0,0.0,0.0,0.0,0.0,0.0,0.0,0.0,0.0,0.0,0.0,0.0,0.0,0.0,1,1,1,,
101505004,Jefferson State Community College,102200,Chilton Campus,1850 Lay Dam Road,Clanton,AL,35045,4,"Public, 2-year",3090.0,5341.0,8431.0,,,,,,,,,,,,0.0,0.0,0.0,0.0,0.0,0.0,0.0,0.0,0.0,0.0,0.0,0.0,0.0,0.0,0.0,0.0,0.0,0.0,0.0,0.0,0.0,0.0,1,1,1,32.87240475,-86.62152078430515
101514001,John C Calhoun State Community College,101300,Main Campus,HWY 31 N,DECATUR,AL,356092216,4,"Public, 2-year",3698.0,4465.0,8163.0,,,,,,,,,,,,,,,,,,,,,,,,,,,,,,,,,,1,1,1,,
101514002,John C Calhoun State Community College,101300,Calhoun Community College Huntsville,102 Wynn Drive,Huntsville,AL,35805,4,"Public, 2-year",3698.0,4465.0,8163.0,,,,,,,,,,,,,,,,,,,,,,,,,,,,,,,,,,1,1,1,,
101514004,John C Calhoun State Community College,101300,Alabama Center for the Arts,133 2nd Avenue NE,Decatur,AL,35601,4,"Public, 2-year",3698.0,4465.0,8163.0,,,,,,,,,,,,,,,,,,,,,,,,,,,,,,,,,,1,1,1,,
101569001,Lawson State Community College,105900,Lawson State Community College,3060 WILSON RD SW,BIRMINGHAM,AL,352211717,4,"Public, 2-year",987.0,1932.0,2919.0,,,,,,,,,,,,,,,,,,,,,,,,,,,,,,,,,,1,1,1,33.44901193484017,-86.88907811376714
101569002,Lawson State Community College,105900,Bessemer Campus,1100 9th Ave SW,Bessemer,AL,35022,4,"Public, 2-year",987.0,1932.0,2919.0,,,,,,,,,,,,,,,,,,,,,,,,,,,,,,,,,,1,1,1,33.374820299999996,-86.99296732984362
101587001,University of West Alabama,102400,University of West Alabama,Station 50,Livingston,AL,35470,1,"Public, 4-year or above",1442.0,4418.0,5860.0,0.0,0.0,0.0,0.0,0.0,0.0,0.0,0.0,0.0,0.0,0.0,0.0,0.0,0.0,0.0,0.0,0.0,0.0,0.0,0.0,0.0,0.0,0.0,0.0,0.0,0.0,0.0,0.0,0.0,0.0,0.0,0.0,0.0,1,1,1,32.864466699999994,-117.20025044347608
101602001,Lurleen B Wallace Community College,898800,Main Campus,1000 Dannelly Blvd.,ANDALUSIA,AL,364201418,4,"Public, 2-year",878.0,1051.0,1929.0,,,,,,,,,,,,,,,,,,,,,,,,,,,,,,,,,,1,1,1,31.323364849999997,-86.45117848069391
101602002,Lurleen B Wallace Community College,898800,Lurleen B. Wallace Community College-MacArthur Cam,1708 N. Main Street,Opp,AL,36467,4,"Public, 2-year",878.0,1051.0,1929.0,,,,,,,,,,,,,,,,,,,,,,,,,,,,,,,,,,1,1,1,,
101602003,Lurleen B Wallace Community College,898800,Lurleen B. Wallace Community College-Greenville Ca,750 Greenville Bypass,Greenville,AL,36037,4,"Public, 2-year",878.0,1051.0,1929.0,,,,,,,,,,,,,,,,,,,,,,,,,,,,,,,,,,1,1,1,31.84753844897959,-86.62682687755103
101648001,Marion Military Institute,102600,Main Campus,1101 Washington St.,Marion,AL,36756,4,"Public, 2-year",232.0,88.0,320.0,,,,,,,,,,,,,,,,,,,,,,,,,,,,,,,,,,1,1,1,,
101675001,Miles College,102800,Miles College,5500 Myron Massey Blvd,Fairfield,AL,35064,2,"Private nonprofit, 4-year or above",570.0,688.0,1258.0,,,,,,,,,,,,,,,,,,,,,,,0.0,0.0,0.0,0.0,0.0,0.0,0.0,0.0,0.0,0.0,0.0,1,1,1,33.48109865,-86.90911015439585
101693001,University of Mobile,102900,University of Mobile,5735 College Parkway,MOBILE,AL,366132842,2,"Private nonprofit, 4-year or above",698.0,1106.0,1804.0,0.0,0.0,0.0,0.0,0.0,0.0,0.0,0.0,0.0,0.0,0.0,0.0,0.0,0.0,0.0,0.0,0.0,0.0,0.0,0.0,0.0,0.0,0.0,0.0,0.0,0.0,0.0,0.0,0.0,0.0,0.0,0.0,0.0,1,1,1,30.797630653061226,-88.12478971428571
101709001,University of Montevallo,100400,University of Montevallo,STATION 6001,MONTEVALLO,AL,35115,1,"Public, 4-year or above",886.0,1700.0,2586.0,0.0,0.0,0.0,0.0,0.0,0.0,0.0,0.0,0.0,0.0,0.0,0.0,0.0,0.0,0.0,0.0,0.0,0.0,0.0,0.0,0.0,0.0,,,,,,,,,,,,1,1,1,10.3244744,123.9742539
101736001,Northwest-Shoals Community College,569700,Shoals Campus,800 GEORGE WALLACE BLVD,MUSCLE SHOALS,AL,35661,4,"Public, 2-year",1853.0,2179.0,4032.0,,,,,,,,,,,,,,,,,,,,,,,,,,,,,,,,,,1,1,1,34.740338,-87.6775438
101736002,Northwest-Shoals Community College,569700,Phil Campbell Campus,2080 College Road,Phil Campbell,AL,35581,4,"Public, 2-year",1853.0,2179.0,4032.0,,,,,,,,,,,,,,,,,,,,,,,,,,,,,,,,,,1,1,1,,
101879001,University of North Alabama,101600,Main Campus,1 Harrison Plaza- UNA Box 5067,FLORENCE,AL,356320001,1,"Public, 4-year or above",3490.0,6340.0,9830.0,0.0,0.0,0.0,0.0,0.0,0.0,0.0,0.0,0.0,0.0,0.0,0.0,0.0,1.0,1.0,0.0,0.0,0.0,0.0,0.0,0.0,0.0,0.0,0.0,0.0,0.0,0.0,0.0,0.0,1.0,0.0,0.0,0.0,1,1,1,,
101879002,University of North Alabama,101600,East Campus,1640 Tune Avenue,florence,AL,35630,1,"Public, 4-year or above",3490.0,6340.0,9830.0,,,,,,,,,,,,,,,,,,,,,,,,,,,,,,,,,,1,1,1,34.821231049999994,-87.65919046495817
101897001,Northeast Alabama Community College,103100,Northeast Alabama Community College,P.O. Box 159  / 138 Alabama Hwy 35,Rainsville,AL,35986,4,"Public, 2-year",902.0,1688.0,2590.0,0.0,0.0,0.0,0.0,0.0,0.0,0.0,0.0,0.0,0.0,0.0,0.0,0.0,0.0,0.0,0.0,0.0,0.0,0.0,0.0,0.0,0.0,0.0,0.0,0.0,0.0,0.0,0.0,0.0,0.0,0.0,0.0,0.0,1,1,1,,
101912001,Oakwood University,103300,Oakwood University,7000 ADVENTIST BLVD NW,HUNTSVILLE,AL,358960003,2,"Private nonprofit, 4-year or above",632.0,838.0,1470.0,0.0,0.0,0.0,0.0,0.0,0.0,0.0,0.0,0.0,0.0,0.0,0.0,0.0,0.0,0.0,0.0,0.0,0.0,0.0,0.0,0.0,0.0,0.0,0.0,0.0,0.0,0.0,0.0,0.0,0.0,0.0,0.0,0.0,1,1,1,34.7548158,-86.65883941556405
101994001,Reid State Technical College,569200,Main Campus,100 HWY 83,EVERGREEN,AL,36401,4,"Public, 2-year",196.0,238.0,434.0,0.0,0.0,0.0,0.0,0.0,0.0,0.0,0.0,0.0,0.0,0.0,,,,,,,,,,,,,,,,,,,,,,,1,1,1,33.629682,-91.790949
102030001,Bishop State Community College,103000,Main Campus,351 NORTH BROAD STREET,MOBILE,AL,366035898,4,"Public, 2-year",1040.0,1928.0,2968.0,,,,,,,,,,,,0.0,0.0,0.0,0.0,0.0,0.0,0.0,0.0,0.0,0.0,0.0,0.0,0.0,0.0,0.0,0.0,0.0,0.0,0.0,0.0,0.0,0.0,1,1,1,30.694717400000002,-88.05752532626387
102030002,Bishop State Community College,103000,Central Campus,1365 Dr. Martin Luther King Blvd.,Mobile,AL,36603,4,"Public, 2-year",1040.0,1928.0,2968.0,,,,,,,,,,,,,,,,,,,,,,,,,,,,,,,,,,1,1,1,,
102030003,Bishop State Community College,103000,Carvar Campus,414 Stanton Rd.,Mobile,AL,36617,4,"Public, 2-year",1040.0,1928.0,2968.0,,,,,,,,,,,,,,,,,,,,,,,,,,,,,,,,,,1,1,1,,
102030004,Bishop State Community College,103000,SouthWest Campus,925 Dauphin Island Parkway,Mobile,AL,36605,4,"Public, 2-year",1040.0,1928.0,2968.0,,,,,,,,,,,,,,,,,,,,,,,,,,,,,,,,,,1,1,1,30.66194864,-88.08836808
102049001,Samford University,103600,Main Campus,800 Lakeshore Drive,Birmingham,AL,352292240,2,"Private nonprofit, 4-year or above",1824.0,3858.0,5682.0,0.0,0.0,0.0,0.0,0.0,0.0,0.0,0.0,0.0,0.0,0.0,0.0,0.0,0.0,1.0,0.0,0.0,0.0,0.0,0.0,0.0,0.0,0.0,0.0,0.0,0.0,0.0,0.0,0.0,0.0,0.0,0.0,0.0,1,1,1,,
102049002,Samford University,103600,Daniel House at Samford University London Study Center,"12 Ashburn Gardens, Kensington",London,,SW7 4DG,2,"Private nonprofit, 4-year or above",1824.0,3858.0,5682.0,,,,,,,,,,,,0.0,0.0,0.0,0.0,0.0,0.0,0.0,0.0,0.0,0.0,0.0,,,,,,,,,,,,1,1,1,51.4937108,-0.18582894218636367
102067001,Shelton State Community College,569100,Martin Campus,9500 OLD GREENSBORO RD,TUSCALOOSA,AL,35405,4,"Public, 2-year",1698.0,2468.0,4166.0,,,,,,,,,,,,,,,,,,,,,,,,,,,,,,,,,,1,1,1,33.069772,-87.564326
102067002,Shelton State Community College,569100,"Shelton State Community College, C. A. Fredd Campus",3401 MARTIN LUTHER KING BLVD,TUSCALOOSA,AL,354013541,4,"Public, 2-year",1698.0,2468.0,4166.0,,,,,,,,,,,,,,,,,,,,,,,,,,,,,,,,,,1,1,1,,
102076001,Snead State Community College,103800,Main Campus,P.O. Box 734,BOAZ,AL,359570734,4,"Public, 2-year",928.0,1579.0,2507.0,0.0,0.0,0.0,0.0,0.0,0.0,0.0,0.0,0.0,0.0,0.0,0.0,0.0,0.0,0.0,0.0,0.0,0.0,0.0,0.0,0.0,0.0,0.0,0.0,0.0,0.0,0.0,0.0,0.0,0.0,0.0,0.0,0.0,1,1,1,,
102076003,Snead State Community College,103800,Aviation College at Snead State ,24 Aviation Way,Albertville,AL,35950,4,"Public, 2-year",928.0,1579.0,2507.0,,,,,,,,,,,,,,,,,,,,,,,,,,,,,,,,,,1,1,1,33.876858166666665,-84.30611754166667
102094001,University of South Alabama,105700,Main Campus,307 N UNIVERSITY BLVD,MOBILE,AL,366880002,1,"Public, 4-year or above",4284.0,9154.0,13438.0,0.0,0.0,1.0,1.0,0.0,0.0,2.0,7.0,1.0,1.0,0.0,0.0,0.0,4.0,5.0,0.0,0.0,1.0,3.0,0.0,2.0,0.0,1.0,0.0,0.0,0.0,0.0,0.0,2.0,2.0,3.0,3.0,0.0,1,1,1,,
102094011,University of South Alabama,105700,USA Baldwin County - Fairhope,111 St. James Ave.,Fairhope,AL,36532,1,"Public, 4-year or above",4284.0,9154.0,13438.0,,,,,,,,,,,,,,,,,,,,,,,,,,,,,,,,,,1,1,1,-43.4966473,172.6042106
102234001,Spring Hill College,104100,Spring Hill College,4000 DAUPHIN ST,MOBILE,AL,366081791,2,"Private nonprofit, 4-year or above",467.0,579.0,1046.0,0.0,0.0,0.0,0.0,0.0,0.0,0.0,0.0,0.0,0.0,0.0,0.0,0.0,0.0,0.0,0.0,0.0,0.0,0.0,0.0,0.0,0.0,0.0,0.0,0.0,0.0,0.0,0.0,0.0,0.0,0.0,0.0,0.0,1,1,1,30.6897722,-88.1392483077685
102270001,Stillman College,104400,Stillman College,3601 Stillman Boulevard,TUSCALOOSA,AL,35401,2,"Private nonprofit, 4-year or above",328.0,416.0,744.0,,,,,,,,,,,,,,,,,,,,,,,0.0,0.0,0.0,0.0,0.0,0.0,0.0,0.0,0.0,0.0,0.0,1,1,1,33.20086,-87.585959
102298001,Talladega College,104600,Talladega College,627 W BATTLE ST,TALLADEGA,AL,35160,2,"Private nonprofit, 4-year or above",453.0,450.0,903.0,0.0,0.0,0.0,0.0,0.0,0.0,0.0,0.0,0.0,0.0,0.0,,,,,,,,,,,,,,,,,,,,,,,1,1,1,30.78295220408163,-83.56428995918368
102313001,H Councill Trenholm State Community College,573400,Main Campus - Trenholm Campus,P.O. Box 10048,MONTGOMERY,AL,361083199,4,"Public, 2-year",771.0,1213.0,1984.0,0.0,0.0,0.0,0.0,0.0,0.0,0.0,0.0,0.0,0.0,0.0,0.0,0.0,0.0,0.0,0.0,0.0,0.0,0.0,0.0,0.0,0.0,,,,,,,,,,,,1,1,1,45.6662045,8.7952074
102313002,H Councill Trenholm State Community College,573400,Patterson Campus,3920 Troy Highway,MONTGOMERY,AL,36116,4,"Public, 2-year",771.0,1213.0,1984.0,0.0,0.0,0.0,0.0,0.0,0.0,0.0,0.0,0.0,0.0,0.0,0.0,0.0,0.0,0.0,0.0,0.0,0.0,0.0,0.0,0.0,0.0,,,,,,,,,,,,1,1,1,32.3101814,-86.2201341
102368001,Troy University,104700,Troy Campus,University Avenue,TROY,AL,360820001,1,"Public, 4-year or above",5098.0,9058.0,14156.0,0.0,0.0,0.0,0.0,0.0,0.0,0.0,0.0,0.0,0.0,0.0,0.0,0.0,0.0,0.0,0.0,0.0,0.0,0.0,0.0,0.0,0.0,0.0,0.0,1.0,0.0,0.0,0.0,0.0,0.0,0.0,0.0,0.0,1,1,1,-34.4108601,150.8833256
102368002,Troy University,104700,Phenix City Campus,1 University Place,Phenix City,AL,36869,1,"Public, 4-year or above",5098.0,9058.0,14156.0,,,,,,,,,,,,,,,,,,,,,,,,,,,,,,,,,,1,1,1,40.616907749999996,-93.9255655729911
102368003,Troy University,104700,Montgomery Campus,231 Montgomery Street,Montgomery,AL,361034419,1,"Public, 4-year or above",5098.0,9058.0,14156.0,,,,,,,,,,,,,,,,,,,,,,,,,,,,,,,,,,1,1,1,,
102368004,Troy University,104700,Dothan Campus,501 University Drive,Dothan,AL,363040368,1,"Public, 4-year or above",5098.0,9058.0,14156.0,,,,,,,,,,,,,,,,,,,,,,,,,,,,,,,,,,1,1,1,,
102368005,Troy University,104700,Atlantic Region,2743 Perimeter Parkway,Augusta,GA,30907,1,"Public, 4-year or above",5098.0,9058.0,14156.0,,,,,,,,,,,,,,,,,,,,,,,0.0,0.0,0.0,0.0,0.0,0.0,0.0,0.0,0.0,0.0,0.0,1,1,1,33.483719592124665,-82.08583673874499
102368006,Troy University,104700,Florida Region,"81 Beal Parkway, S. E.",Fort Walton Beach,FL,32548,1,"Public, 4-year or above",5098.0,9058.0,14156.0,,,,,,,,,,,,,,,,,,,,,,,0.0,0.0,0.0,0.0,0.0,0.0,0.0,0.0,0.0,0.0,0.0,1,1,1,,
102368007,Troy University,104700,Southeast Region,2743 Perimeter Parkway,Augusta,GA,30907,1,"Public, 4-year or above",5098.0,9058.0,14156.0,,,,,,,,,,,,,,,,,,,,,,,0.0,0.0,0.0,0.0,0.0,0.0,0.0,0.0,0.0,0.0,0.0,1,1,1,33.483719592124665,-82.08583673874499
102368008,Troy University,104700,Western Region,81 Beal Parkway Southeast,Ft. Walton Beach ,FL,32548,1,"Public, 4-year or above",5098.0,9058.0,14156.0,,,,,,,,,,,,,,,,,,,,,,,0.0,0.0,0.0,0.0,0.0,0.0,0.0,0.0,0.0,0.0,0.0,1,1,1,,
102377001,Tuskegee University,105000,TUSKEGEE UNIVERSITY,1200 W Montgoemry Road,Tuskegee,AL,36088,2,"Private nonprofit, 4-year or above",912.0,1658.0,2570.0,0.0,0.0,1.0,1.0,0.0,0.0,0.0,0.0,0.0,0.0,0.0,0.0,0.0,0.0,2.0,0.0,0.0,0.0,0.0,0.0,0.0,0.0,0.0,0.0,0.0,0.0,0.0,0.0,0.0,0.0,0.0,0.0,0.0,1,1,1,,
102395001,United States Sports Academy,2170600,Main Campus,ONE ACADEMY DR,DAPHNE,AL,365267055,2,"Private nonprofit, 4-year or above",175.0,65.0,240.0,,,,,,,,,,,,,,,,,,,,,,,,,,,,,,,,,,1,1,1,33.2325355,-87.5350242
102429001,Bevill State Community College,573300,Bevill State Community College Jasper (Main) Campus,1411 Indiana Avenue,Jasper,AL,35501,4,"Public, 2-year",1495.0,2208.0,3703.0,0.0,0.0,0.0,0.0,0.0,0.0,0.0,0.0,0.0,0.0,0.0,0.0,0.0,0.0,0.0,0.0,0.0,0.0,0.0,0.0,0.0,0.0,,,,,,,,,,,,1,1,1,38.1948418,-85.71886459757054
102429002,Bevill State Community College,573300,Sumiton Campus,101 State Street,Sumiton,AL,35148,4,"Public, 2-year",1495.0,2208.0,3703.0,,,,,,,,,,,,,,,,,,,,,,,,,,,,,,,,,,1,1,1,,
102429003,Bevill State Community College,573300,Fayette Campus,2631 Temple Avenue North,Fayette,AL,35555,4,"Public, 2-year",1495.0,2208.0,3703.0,,,,,,,,,,,,,,,,,,,,,,,,,,,,,,,,,,1,1,1,33.72584195,-87.81840246008414
102429004,Bevill State Community College,573300,Hamilton Campus,1481 Military Street South,HAMILTON,AL,35570,4,"Public, 2-year",1495.0,2208.0,3703.0,,,,,,,,,,,,,,,,,,,,,,,,,,,,,,,,,,1,1,1,34.124918040816326,-87.98984287755103
102553001,University of Alaska Anchorage,1146200,Anchorage Campus,3211 Providence Dr,Anchorage,AK,99508,1,"Public, 4-year or above",4139.0,6325.0,10464.0,0.0,0.0,0.0,0.0,0.0,0.0,0.0,0.0,0.0,0.0,0.0,0.0,0.0,0.0,0.0,0.0,0.0,0.0,0.0,0.0,0.0,0.0,0.0,0.0,0.0,1.0,0.0,0.0,0.0,0.0,0.0,0.0,0.0,1,1,1,61.1896051,-149.8315765
102553002,University of Alaska Anchorage,1146200,Matanuska-Susitna College,8274 E. College Road,Palmer,AK,99645,1,"Public, 4-year or above",4139.0,6325.0,10464.0,,,,,,,,,,,,,,,,,,,,,,,0.0,0.0,0.0,0.0,0.0,0.0,0.0,0.0,0.0,0.0,0.0,1,1,1,,
102553003,University of Alaska Anchorage,1146200,Kenai Peninsula College - Kenai River Campus,156 College Road,Soldotna,AK,99669,1,"Public, 4-year or above",4139.0,6325.0,10464.0,0.0,0.0,0.0,0.0,0.0,0.0,0.0,0.0,0.0,0.0,0.0,0.0,0.0,0.0,0.0,0.0,0.0,0.0,0.0,0.0,0.0,0.0,,,,,,,,,,,,1,1,1,52.441944750000005,-1.8666467315193218
102553004,University of Alaska Anchorage,1146200,Kenai Peninsula College - Kachemak Bay Campus,533 E. Pioneer Avenue,Homer,AK,996037624,1,"Public, 4-year or above",4139.0,6325.0,10464.0,0.0,0.0,0.0,0.0,0.0,0.0,0.0,0.0,0.0,0.0,0.0,0.0,0.0,0.0,0.0,0.0,0.0,0.0,0.0,0.0,0.0,0.0,,,,,,,,,,,,1,1,1,34.08097466834171,-117.17592293467337
102553005,University of Alaska Anchorage,1146200,Kodiak College,117 Benny Benson Drive,Kodiak,AK,99615,1,"Public, 4-year or above",4139.0,6325.0,10464.0,0.0,0.0,0.0,0.0,0.0,0.0,0.0,0.0,0.0,0.0,0.0,0.0,0.0,0.0,0.0,0.0,0.0,0.0,0.0,0.0,0.0,0.0,0.0,0.0,0.0,0.0,0.0,0.0,0.0,0.0,0.0,0.0,0.0,1,1,1,57.80763565274534,-152.36767328260467
102553007,University of Alaska Anchorage,1146200,Prince William Sound College,303 Lowe St,Valdez,AK,99686,1,"Public, 4-year or above",4139.0,6325.0,10464.0,0.0,0.0,0.0,0.0,0.0,0.0,0.0,0.0,0.0,0.0,0.0,0.0,0.0,0.0,0.0,0.0,0.0,0.0,0.0,0.0,0.0,0.0,0.0,0.0,0.0,0.0,0.0,0.0,0.0,0.0,0.0,0.0,0.0,1,1,1,61.134274,-146.3554715
102553009,University of Alaska Anchorage,1146200,Aviation Technology Complex,2811 Merrill Field Drive,Anchorage,AK,99501,1,"Public, 4-year or above",4139.0,6325.0,10464.0,0.0,0.0,0.0,0.0,0.0,0.0,0.0,0.0,0.0,0.0,0.0,0.0,0.0,0.0,0.0,0.0,0.0,0.0,0.0,0.0,0.0,0.0,0.0,0.0,0.0,0.0,0.0,0.0,0.0,0.0,0.0,0.0,0.0,1,1,1,61.2146716,-149.82978793698513
102553010,University of Alaska Anchorage,1146200,JBER - Elmendorf Extension,4109 Bullard Avenue,Elmendorf Air Force Base,AK,99506,1,"Public, 4-year or above",4139.0,6325.0,10464.0,,,,,,,,,,,,,,,,,,,,,,,,,,,,,,,,,,0,1,1,61.23323551693885,-149.85900194652584
102553011,University of Alaska Anchorage,1146200,JBER - Richardson Extension,"Bldg 7, Chilkoot Ave",Fort Richardson,AK,99505,1,"Public, 4-year or above",4139.0,6325.0,10464.0,,,,,,,,,,,,,,,,,,,,,,,,,,,,,,,,,,0,1,1,61.2515838,-149.6974421
102553012,University of Alaska Anchorage,1146200,Prince William Sound College - Cordova Extension,100 Fisherman Ave,Cordova,AK,99574,1,"Public, 4-year or above",4139.0,6325.0,10464.0,,,,,,,,,,,,,,,,,,,,,,,,,,,,,,,,,,0,1,1,57.740761,-152.501728
102580001,Alaska Bible College,884300,Main Campus,248 E. Elmwood Ave.,Palmer,AK,99645,2,"Private nonprofit, 4-year or above",23.0,16.0,39.0,,,,,,,,,,,,,,,,,,,,,,,,,,,,,,,,,,1,1,1,61.5984652,-149.1116399896245
102614001,University of Alaska Fairbanks,106300,University of Alaska Fairbanks,P.O. Box 757500,FAIRBANKS,AK,997757480,1,"Public, 4-year or above",2531.0,4076.0,6607.0,0.0,0.0,0.0,0.0,0.0,0.0,1.0,0.0,0.0,0.0,0.0,0.0,0.0,0.0,0.0,0.0,0.0,0.0,0.0,0.0,0.0,0.0,0.0,0.0,1.0,0.0,0.0,0.0,0.0,0.0,1.0,2.0,0.0,1,1,1,,
102614002,University of Alaska Fairbanks,106300,Kuskokwim rural campus,201 Akiak Drive,Bethel,AK,995590368,1,"Public, 4-year or above",2531.0,4076.0,6607.0,,,,,,,,,,,,,,,,,,,,,,,0.0,0.0,0.0,0.0,0.0,0.0,0.0,2.0,0.0,0.0,0.0,1,1,1,60.791974,-161.775418
102614003,University of Alaska Fairbanks,106300,Northwest Campus,P.O. Box 400,Nome,AK,99762,1,"Public, 4-year or above",2531.0,4076.0,6607.0,0.0,0.0,0.0,0.0,0.0,0.0,0.0,0.0,0.0,0.0,0.0,0.0,0.0,1.0,0.0,0.0,0.0,0.0,0.0,0.0,0.0,0.0,,,,,,,,,,,,1,1,1,,
102614004,University of Alaska Fairbanks,106300,Bristol Bay rural campus,P.O. Box 1070,Dillingham,AK,99576,1,"Public, 4-year or above",2531.0,4076.0,6607.0,0.0,0.0,0.0,0.0,0.0,0.0,0.0,0.0,0.0,0.0,0.0,,,,,,,,,,,,0.0,0.0,0.0,0.0,0.0,0.0,0.0,0.0,0.0,0.0,0.0,1,1,1,45.6662045,8.7952074
102614005,University of Alaska Fairbanks,106300,Chukchi rural campus,P.O. Box 297,Kotzebue,AK,99752,1,"Public, 4-year or above",2531.0,4076.0,6607.0,0.0,0.0,0.0,0.0,0.0,0.0,0.0,0.0,0.0,0.0,0.0,,,,,,,,,,,,,,,,,,,,,,,1,1,1,,
102614007,University of Alaska Fairbanks,106300,Community and Technical College,604 Barnette Street,Fairbanks,AK,99701,1,"Public, 4-year or above",2531.0,4076.0,6607.0,0.0,0.0,0.0,0.0,0.0,0.0,0.0,0.0,0.0,0.0,0.0,0.0,0.0,0.0,0.0,0.0,0.0,0.0,0.0,0.0,0.0,0.0,0.0,0.0,0.0,0.0,0.0,0.0,0.0,0.0,0.0,0.0,0.0,1,1,1,64.841012,-147.72648485515396
102614008,University of Alaska Fairbanks,106300,Interior Alaska Campus-Tok,P.O. Box 464,Tok,AK,99780,1,"Public, 4-year or above",2531.0,4076.0,6607.0,0.0,0.0,0.0,0.0,0.0,0.0,0.0,0.0,0.0,0.0,0.0,,,,,,,,,,,,,,,,,,,,,,,1,1,1,,
102614011,University of Alaska Fairbanks,106300,Seward Marine Center Campus,201 Third Avenue,Seward,AK,99664,1,"Public, 4-year or above",2531.0,4076.0,6607.0,0.0,0.0,0.0,0.0,0.0,0.0,0.0,0.0,0.0,0.0,0.0,,,,,,,,,,,,,,,,,,,,,,,1,1,1,,
102614012,University of Alaska Fairbanks,106300,Kasitsna Bay Laboratory,Drawer G,Seldovia,AK,99663,1,"Public, 4-year or above",2531.0,4076.0,6607.0,,,,,,,,,,,,0.0,0.0,0.0,0.0,0.0,0.0,0.0,0.0,0.0,0.0,0.0,,,,,,,,,,,,0,1,1,29.7568073,-95.4571274
102632001,University of Alaska Southeast,106500,Main Campus/Auke Bay,11066 Auke Lake Way,JUNEAU,AK,99801,1,"Public, 4-year or above",669.0,1254.0,1923.0,0.0,0.0,0.0,0.0,0.0,0.0,0.0,0.0,0.0,0.0,0.0,0.0,0.0,0.0,0.0,0.0,0.0,0.0,0.0,0.0,0.0,0.0,0.0,0.0,0.0,0.0,0.0,0.0,0.0,0.0,0.0,0.0,0.0,1,1,1,58.39233645,-134.64781229447976
102632002,University of Alaska Southeast,106500,University of Alaska Southeast - Ketchikan,2600 7th Ave,Ketchikan,AK,99901,1,"Public, 4-year or above",669.0,1254.0,1923.0,,,,,,,,,,,,,,,,,,,,,,,,,,,,,,,,,,1,1,1,,
102632003,University of Alaska Southeast,106500,University of Alaska Southeast - Sitka,1332 Seward Avenue,Sitka,AK,99835,1,"Public, 4-year or above",669.0,1254.0,1923.0,,,,,,,,,,,,,,,,,,,,,,,,,,,,,,,,,,1,1,1,57.0518743,-135.35182773935085
102669001,Alaska Pacific University,106100,Main Campus,4101 UNIVERSITY DR,ANCHORAGE,AK,99508,2,"Private nonprofit, 4-year or above",132.0,463.0,595.0,0.0,0.0,0.0,0.0,0.0,0.0,0.0,0.0,0.0,0.0,0.0,,,,,,,,,,,,0.0,0.0,0.0,0.0,0.0,0.0,0.0,0.0,0.0,0.0,0.0,1,1,1,-27.4952492,153.0130356
102711001,Alaska Vocational Technical Center,3160300,First Lake Campus,809 Second Avenue,SEWARD,AK,996640889,7,"Public, less-than 2-year",140.0,62.0,202.0,,,,,,,,,,,,,,,,,,,,,,,,,,,,,,,,,,1,1,1,,
102711002,Alaska Vocational Technical Center,3160300,Residence Life Campus,516 3rd Avenue,Seward,AK,006640889,7,"Public, less-than 2-year",140.0,62.0,202.0,,,,,,,,,,,,,,,,,,,,,,,,,,,,,,,,,,1,1,1,,
102711004,Alaska Vocational Technical Center,3160300,Port Avenue Campus,808 Port Avenue,Seward,AK,996640889,7,"Public, less-than 2-year",140.0,62.0,202.0,,,,,,,,,,,,,,,,,,,,,,,,,,,,,,,,,,1,1,1,60.12217162626262,-149.4325214747475
102711005,Alaska Vocational Technical Center,3160300,Applied Technology Campus,1900-1916 Leirer Ave and 1906 Alameda Avenue,Seward,AK,996640889,7,"Public, less-than 2-year",140.0,62.0,202.0,,,,,,,,,,,,,,,,,,,,,,,,,,,,,,,,,,1,1,1,,
102845001,Charter College,2576900,Charter College-Anchorage,2221 E NORTHERN LIGHTS BLVD STE 120,ANCHORAGE,AK,99508,3,"Private for-profit, 4-year or above",577.0,1540.0,2117.0,0.0,0.0,0.0,0.0,0.0,0.0,0.0,1.0,1.0,1.0,0.0,,,,,,,,,,,,,,,,,,,,,,,1,1,1,61.1953253,-149.7334129
102845002,Charter College,2576900,Charter College - Wasilla,721 W. Parks Highway,Wasilla,AK,99654,3,"Private for-profit, 4-year or above",577.0,1540.0,2117.0,,,,,,,,,,,,,,,,,,,,,,,,,,,,,,,,,,1,1,1,61.5819876,-149.4690387
102845003,Charter College,2576900,Charter College-Pasco,5278 Outlet Dr.,Pasco,WA,99301,3,"Private for-profit, 4-year or above",577.0,1540.0,2117.0,,,,,,,,,,,,,,,,,,,,,,,,,,,,,,,,,,1,1,1,38.4796628,-122.9983009
102845004,Charter College,2576900,Charter College - Oxnard,"2000 Outlet Center Dr., Suite 150",Oxnard,CA,93036,3,"Private for-profit, 4-year or above",577.0,1540.0,2117.0,,,,,,,,,,,,,,,,,,,,,,,,,,,,,,,,,,1,1,1,,
102845006,Charter College,2576900,Charter College-Vancouver,17200 SE Mill Plain Blvd #100,Vancouver,WA,98683,3,"Private for-profit, 4-year or above",577.0,1540.0,2117.0,,,,,,,,,,,,,,,,,,,,,,,,,,,,,,,,,,1,1,1,45.6169326,-122.4760899
102845007,Charter College,2576900,Charter College - Fife,"3700 Pacific Highway East, Suite 150",Fife,WA,98424,3,"Private for-profit, 4-year or above",577.0,1540.0,2117.0,,,,,,,,,,,,,,,,,,,,,,,,,,,,,,,,,,1,1,1,,
102845008,Charter College,2576900,Charter College-Lacey,"4520 Lacey Blvd SE, Suite 40",Lacey,WA,98503,3,"Private for-profit, 4-year or above",577.0,1540.0,2117.0,0.0,0.0,0.0,0.0,0.0,0.0,0.0,0.0,0.0,0.0,0.0,,,,,,,,,,,,0.0,0.0,0.0,0.0,0.0,0.0,0.0,0.0,2.0,0.0,0.0,1,1,1,47.0365832,-122.8068788
102845009,Charter College,2576900,Charter College-E Wenatchee,"595 Grant Road, Suite 5",East Wenatchee,WA,98802,3,"Private for-profit, 4-year or above",577.0,1540.0,2117.0,,,,,,,,,,,,0.0,0.0,0.0,0.0,0.0,0.0,0.0,0.0,0.0,0.0,0.0,,,,,,,,,,,,1,1,1,,
102845010,Charter College,2576900,Charter College-Canyon Country,19034 Soledad Canyon Road,Canyon Country,CA,91351,3,"Private for-profit, 4-year or above",577.0,1540.0,2117.0,,,,,,,,,,,,,,,,,,,,,,,,,,,,,,,,,,1,1,1,34.41562770499582,-118.46837538626562
102845011,Charter College,2576900,Charter College-Lancaster,"43141 Business Center Parkway, Suite 109",Lancaster,CA,93535,3,"Private for-profit, 4-year or above",577.0,1540.0,2117.0,,,,,,,,,,,,,,,,,,,,,,,,,,,,,,,,,,1,1,1,32.2653132,-90.138896
102845012,Charter College,2576900,Charter College - Yakima,"2706 West Nob Hill Boulevard, Suite 106",Yakima,WA,98902,3,"Private for-profit, 4-year or above",577.0,1540.0,2117.0,,,,,,,,,,,,,,,,,,,,,,,,,,,,,,,,,,1,1,1,,
102845013,Charter College,2576900,Charter College - Billings,"1595 Grand Avenue, Suite 230",Billings,MT,59102,3,"Private for-profit, 4-year or above",577.0,1540.0,2117.0,,,,,,,,,,,,,,,,,,,,,,,,,,,,,,,,,,1,1,1,,
102845014,Charter College,2576900,Charter College - Missoula,1930 Brooks Street,Missoula,MT,59801,3,"Private for-profit, 4-year or above",577.0,1540.0,2117.0,,,,,,,,,,,,,,,,,,,,,,,0.0,0.0,0.0,0.0,0.0,0.0,0.0,0.0,0.0,0.0,0.0,1,1,1,32.35939993877551,-86.27432877551021
102845015,Charter College,2576900,Charter College - Charter Institute Farmington,3030 E 20th Street,Farmington,NM,87402,3,"Private for-profit, 4-year or above",577.0,1540.0,2117.0,,,,,,,,,,,,,,,,,,,,,,,,,,,,,,,,,,1,1,1,,
103501001,Alaska Career College,2541000,Main Campus,1415 E Tudor Road,Anchorage,AK,995071033,6,"Private for-profit, 2-year",36.0,232.0,268.0,,,,,,,,,,,,,,,,,,,,,,,,,,,,,,,,,,1,1,1,61.180929,-149.8553051623517
103741001,Empire Beauty School-Tucson,966403,"Empire Beauty School - C Tucson, AZ",3030 E SPEEDWAY BLVD,TUCSON,AZ,85716,9,"Private for-profit, less-than 2-year",10.0,174.0,184.0,,,,,,,,,,,,,,,,,,,,,,,,,,,,,,,,,,1,1,1,32.23592846938776,-110.92766844897959
103893001,Carrington College-Phoenix North,2100600,Carrington College-Phoenix,"2149 W Dunlap Avenue, Suite 100",PHOENIX,AZ,85021,6,"Private for-profit, 2-year",208.0,840.0,1048.0,,,,,,,,,,,,,,,,,,,,,,,,,,,,,,,,,,1,1,1,,
103893009,Carrington College-Phoenix North,2100600,Carrington College-Phoenix East,2149 W DUNLAP AVE,PHOENIX,AZ,85021,6,"Private for-profit, 2-year",208.0,840.0,1048.0,,,,,,,,,,,,,,,,,,,,,,,,,,,,,,,,,,1,1,1,33.5659811,-112.10427322655894
103909001,Carrington College-Mesa,2100611,Carrington College-Mesa- Main Campus,1001 West Southern Avenue,Mesa,AZ,852105005,6,"Private for-profit, 2-year",69.0,463.0,532.0,,,,,,,,,,,,,,,,,,,,,,,,,,,,,,,,,,1,1,1,33.39227005,-111.85324689657435
103927001,Carrington College-Tucson,2100607,Carrington College-Tucson- Main Campus,"201 North Bonita Avenue, Suite 101",Tucson,AZ,857452974,6,"Private for-profit, 2-year",83.0,363.0,446.0,,,,,,,,,,,,,,,,,,,,,,,,,,,,,,,,,,1,1,1,,
103954001,Arizona Academy of Beauty,886400,Main Campus,5631 E SPEEDWAY BLVD,TUCSON,AZ,85712,9,"Private for-profit, less-than 2-year",2.0,32.0,34.0,,,,,,,,,,,,,,,,,,,,,,,,,,,,,,,,,,1,1,1,32.23626157282233,-110.87240090282233
103963001,Miller-Motte College-Arizona Automotive Institute,2306807,Arizona Automotive Institute,6829 N 46TH AVE,GLENDALE,AZ,853013579,9,"Private for-profit, less-than 2-year",352.0,59.0,411.0,,,,,,,,,,,,,,,,,,,,,,,,,,,,,,,,,,1,1,1,,
104090001,Brookline College-Phoenix,2218800,Brookline College - Phoenix Campus,"2445 W. Dunlap Avenue, Suite 100",Phoenix,AZ,85021,3,"Private for-profit, 4-year or above",102.0,786.0,888.0,,,,,,,,,,,,,,,,,,,,,,,,,,,,,,,,,,1,1,1,29.3247881,-99.4724805
104151001,Arizona State University Campus Immersion,108100,Tempe Campus,325 E. Apache Blvd.,TEMPE,AZ,852871812,1,"Public, 4-year or above",41414.0,38651.0,80065.0,0.0,0.0,0.0,0.0,0.0,0.0,0.0,0.0,1.0,0.0,0.0,0.0,0.0,0.0,0.0,0.0,0.0,0.0,0.0,2.0,2.0,0.0,0.0,0.0,0.0,0.0,0.0,0.0,0.0,0.0,2.0,1.0,0.0,1,1,1,,
104151005,Arizona State University Campus Immersion,108100,Lake Havasu City Campus,100 University Way,Lake Havasu City,AZ,86404,1,"Public, 4-year or above",41414.0,38651.0,80065.0,,,,,,,,,,,,,,,,,,,,,,,,,,,,,,,,,,1,1,1,32.94506007799383,-87.15673707970859
104151006,Arizona State University Campus Immersion,108100,ASU in Washington D.C.,1800 I St,Washington,DC,20006,1,"Public, 4-year or above",41414.0,38651.0,80065.0,,,,,,,,,,,,,,,,,,,,,,,,,,,,,,,,,,1,1,1,,
104151007,Arizona State University Campus Immersion,108100,ASU in California,"1111 S Broadway, Suite 100",Los Angeles,CA,90015,1,"Public, 4-year or above",41414.0,38651.0,80065.0,,,,,,,,,,,,,,,,,,,,,,,,,,,,,,,,,,1,1,1,,
104151008,Arizona State University Campus Immersion,108100,Arizona State University School of Social Work Tucson ,"340 N Commerce Park Loop, Tucson, AZ 85745",Tucson,AZ,85745,1,"Public, 4-year or above",41414.0,38651.0,80065.0,,,,,,,,,,,,,,,,,,,,,,,,,,,,,,,,,,1,1,1,32.2258348,-110.983713952033
104151010,Arizona State University Campus Immersion,108100,Arizona State University-West Campus,4701 W. Thunderbird Road,Glendale,AZ,853060153,1,"Public, 4-year or above",41414.0,38651.0,80065.0,,,,,,,,,,,,0.0,0.0,0.0,0.0,0.0,0.0,0.0,0.0,0.0,0.0,0.0,0.0,0.0,0.0,0.0,0.0,0.0,0.0,0.0,0.0,0.0,0.0,1,1,1,,
104151012,Arizona State University Campus Immersion,108100,Arizona State University-Polytechnic,7001 E. Williams Field Road,Mesa,AZ,852121812,1,"Public, 4-year or above",41414.0,38651.0,80065.0,0.0,0.0,0.0,0.0,0.0,0.0,0.0,0.0,0.0,0.0,0.0,0.0,0.0,0.0,0.0,0.0,0.0,0.0,0.0,0.0,0.0,0.0,0.0,0.0,0.0,0.0,0.0,0.0,0.0,0.0,0.0,0.0,0.0,1,1,1,33.3071478,-111.6772761
104151014,Arizona State University Campus Immersion,108100,Downtown Phoenix Campus,411 N. Central Avenue,Phoenix,AZ,850042115,1,"Public, 4-year or above",41414.0,38651.0,80065.0,0.0,0.0,0.0,0.0,0.0,0.0,0.0,0.0,0.0,0.0,0.0,0.0,0.0,0.0,0.0,0.0,0.0,0.0,0.0,0.0,0.0,0.0,0.0,0.0,0.0,0.0,0.0,0.0,0.0,0.0,0.0,0.0,0.0,1,1,1,33.453008499999996,-112.07256996779746
104160001,Arizona Western College,107100,Main Campus,2020 S. Avenue 8E,YUMA,AZ,85365,4,"Public, 2-year",3257.0,4793.0,8050.0,0.0,0.0,0.0,0.0,0.0,0.0,0.0,0.0,0.0,0.0,0.0,,,,,,,,,,,,,,,,,,,,,,,1,1,1,,
104160002,Arizona Western College,107100,Reskilling & Technology Center,1351 S. Redondo Center Dr.,Yuma,AZ,85365,4,"Public, 2-year",3257.0,4793.0,8050.0,,,,,,,,,,,,,,,,,,,,,,,,,,,,,,,,,,1,1,1,32.70314295,-114.61103978274394
104160003,Arizona Western College,107100,San Luis Learning Center,1340 N 8th Avenue,San Luis,AZ,85349,4,"Public, 2-year",3257.0,4793.0,8050.0,,,,,,,,,,,,,,,,,,,,,,,,,,,,,,,,,,1,1,1,41.34537257424484,-94.0231779966383
104160004,Arizona Western College,107100,Somerton Center,1011 N. Somerton Ave.,Somerton,AZ,85350,4,"Public, 2-year",3257.0,4793.0,8050.0,,,,,,,,,,,,,,,,,,,,,,,,,,,,,,,,,,1,1,1,32.603935428571425,-114.71004266666667
104160005,Arizona Western College,107100,Parker Learning Center,1109 Geronimo Ave,Parker,AZ,85344,4,"Public, 2-year",3257.0,4793.0,8050.0,,,,,,,,,,,,,,,,,,,,,,,,,,,,,,,,,,1,1,1,34.15039710204082,-114.28567220408162
104179001,University of Arizona,108300,Main Campus,1200 E. University Blvd. ,TUCSON,AZ,857210021,1,"Public, 4-year or above",21985.0,27418.0,49403.0,0.0,0.0,1.0,0.0,0.0,0.0,0.0,0.0,6.0,2.0,0.0,0.0,0.0,3.0,1.0,0.0,0.0,0.0,1.0,5.0,1.0,2.0,0.0,0.0,7.0,1.0,0.0,0.0,1.0,0.0,9.0,4.0,2.0,1,1,1,32.23183925,-110.95345675171272
104179002,University of Arizona,108300,University of Arizona Phoenix Bioscience Core Campus,550 E. Van Burren Street,Phoenix,AZ,85004,1,"Public, 4-year or above",21985.0,27418.0,49403.0,,,,,,,,,,,,,,,,,,,,,,,,,,,,,,,,,,1,1,1,40.7287065,-106.2845191
104179005,University of Arizona,108300,University of Arizona Sierra Vista College of Applied Science and Technology,1140 N Colombo Ave,Sierra Vista,AZ,85635,1,"Public, 4-year or above",21985.0,27418.0,49403.0,,,,,,,,,,,,,,,,,,,,,,,,,,,,,,,,,,1,1,1,31.562609645161288,-110.24747787096774
104346001,Central Arizona College,728300,Main Campus-Signal Peak,8470 N OVERFIELD RD,COOLIDGE,AZ,851289778,4,"Public, 2-year",1781.0,2871.0,4652.0,,,,,,,,,,,,,,,,,,,,,,,,,,,,,,,,,,1,1,1,32.957749,-111.6522179
104346002,Central Arizona College,728300,ARAVAIPA CAMPUS,80440 EAST ARAVAIPA RD.,WINKELMAN,AZ,85192,4,"Public, 2-year",1781.0,2871.0,4652.0,,,,,,,,,,,,,,,,,,,,,,,,,,,,,,,,,,1,1,1,,
104346003,Central Arizona College,728300,SUPERSTITION MOUNTAIN CAMPUS,805 S. Idaho Road,APACHE JUNCTION,AZ,851195231,4,"Public, 2-year",1781.0,2871.0,4652.0,,,,,,,,,,,,,,,,,,,,,,,,,,,,,,,,,,1,1,1,,
104346004,Central Arizona College,728300,FLORENCE CENTER (ASPC),"800 E. BUTTE, BLDG 100",FLORENCE,AZ,85132,4,"Public, 2-year",1781.0,2871.0,4652.0,,,,,,,,,,,,,,,,,,,,,,,,,,,,,,,,,,1,1,1,,
104346005,Central Arizona College,728300,CASA GRANDE CENTER,1015 EAST FLORENCE BLVD.,CASA GRANDE,AZ,85122,4,"Public, 2-year",1781.0,2871.0,4652.0,,,,,,,,,,,,,,,,,,,,,,,,,,,,,,,,,,1,1,1,32.87947342857142,-111.74193257142856
104346012,Central Arizona College,728300,Maricopa Campus,17945 N. Regent Drive,Maricopa,AZ,851387808,4,"Public, 2-year",1781.0,2871.0,4652.0,,,,,,,,,,,,,,,,,,,,,,,,,,,,,,,,,,1,1,1,,
104346013,Central Arizona College,728300,San Tan Campus,3736 E. Bella Vista Road,San Tan Valley,AZ,85143,4,"Public, 2-year",1781.0,2871.0,4652.0,,,,,,,,,,,,,,,,,,,,,,,,,,,,,,,,,,1,1,1,33.1648596,-111.52455111843592
104391001,Charles of Italy Beauty College,2280500,Main Campus,"1987 MCCULLOCH BLVD, Suite 205",LAKE HAVASU CITY,AZ,86403,9,"Private for-profit, less-than 2-year",2.0,83.0,85.0,,,,,,,,,,,,0.0,0.0,0.0,0.0,0.0,0.0,0.0,0.0,0.0,0.0,0.0,,,,,,,,,,,,1,1,1,,
104425001,Cochise County Community College District,107200,Douglas Campus,4190 W Highway 80,Douglas,AZ,85607,4,"Public, 2-year",1699.0,2098.0,3797.0,,,,,,,,,,,,0.0,0.0,0.0,0.0,0.0,0.0,0.0,0.0,0.0,0.0,0.0,,,,,,,,,,,,1,1,1,31.82079470587418,-102.41378905152304
104425002,Cochise County Community College District,107200,Sierra Vista,901 Columbo Ave,Sierra Vista,AZ,85635,4,"Public, 2-year",1699.0,2098.0,3797.0,,,,,,,,,,,,0.0,0.0,0.0,0.0,0.0,0.0,0.0,0.0,0.0,0.0,0.0,0.0,0.0,0.0,0.0,0.0,0.0,0.0,0.0,2.0,0.0,0.0,0,1,1,36.814268,-76.410433
104425003,Cochise County Community College District,107200,Downtown Center,2600 E Wilcox Dr,Sierra Vista,AZ,85635,4,"Public, 2-year",1699.0,2098.0,3797.0,,,,,,,,,,,,0.0,0.0,0.0,0.0,0.0,0.0,0.0,0.0,0.0,0.0,0.0,,,,,,,,,,,,0,1,1,32.2511558,-110.9648094
104425004,Cochise County Community College District,107200,Willcox Center ,470 N Bisbee Ave,Willcox,AZ,85643,4,"Public, 2-year",1699.0,2098.0,3797.0,,,,,,,,,,,,0.0,0.0,0.0,0.0,0.0,0.0,0.0,0.0,0.0,0.0,0.0,0.0,0.0,0.0,0.0,0.0,0.0,0.0,0.0,0.0,0.0,0.0,0,1,1,32.26116725628141,-109.84145914070352
104425005,Cochise County Community College District,107200,Fort Huachuca,2288 La Guardia,Sierra Vista,AZ,85613,4,"Public, 2-year",1699.0,2098.0,3797.0,,,,,,,,,,,,0.0,0.0,0.0,0.0,0.0,0.0,0.0,0.0,0.0,0.0,0.0,,,,,,,,,,,,0,1,1,,
104425006,Cochise County Community College District,107200,Benson Center,1025 AZ-90 ,Benson,AZ,85602,4,"Public, 2-year",1699.0,2098.0,3797.0,,,,,,,,,,,,0.0,0.0,0.0,0.0,0.0,0.0,0.0,0.0,0.0,0.0,0.0,,,,,,,,,,,,0,1,1,31.95226898964867,-110.34184731469588
104443001,Empire Beauty School-Chandler,1054208,"Empire Beauty School - Chandler, AZ",2978 N ALMA SCHOOL RD  STE 1-3,CHANDLER,AZ,85224,9,"Private for-profit, less-than 2-year",5.0,55.0,60.0,,,,,,,,,,,,,,,,,,,,,,,,,,,,,,,,,,1,1,1,,
104568001,Avalon Institute-Mesa,1085800,Avalon Institute (Mesa),2111 S Alma School Rd #21,Mesa,AZ,85210,9,"Private for-profit, less-than 2-year",3.0,380.0,383.0,,,,,,,,,,,,,,,,,,,,,,,,,,,,,,,,,,1,1,1,,
104577001,Eastern Arizona College,107300,Main Campus,615 N. Stadium Avenue,Thatcher,AZ,85552,4,"Public, 2-year",1989.0,2875.0,4864.0,0.0,0.0,0.0,0.0,0.0,0.0,0.0,0.0,1.0,0.0,0.0,0.0,0.0,0.0,0.0,0.0,0.0,0.0,0.0,0.0,0.0,0.0,0.0,0.0,0.0,0.0,0.0,0.0,0.0,0.0,0.0,0.0,0.0,1,1,1,32.84556775,-109.76204377802665
104577002,Eastern Arizona College,107300,Gila Pueblo Campus,8274 S. Six Shooter Canyon Road,Globe,AZ,855015103,4,"Public, 2-year",1989.0,2875.0,4864.0,0.0,0.0,0.0,0.0,0.0,0.0,0.0,0.0,0.0,0.0,0.0,0.0,0.0,0.0,0.0,0.0,0.0,0.0,0.0,0.0,0.0,0.0,0.0,0.0,0.0,0.0,0.0,0.0,0.0,0.0,0.0,0.0,0.0,1,1,1,33.3615518,-110.7661811
104577003,Eastern Arizona College,107300,Payson Campus,201 North Mud Springs Road,Payson,AZ,855414426,4,"Public, 2-year",1989.0,2875.0,4864.0,0.0,0.0,0.0,0.0,0.0,0.0,0.0,0.0,0.0,0.0,0.0,0.0,0.0,0.0,0.0,0.0,0.0,0.0,0.0,0.0,0.0,0.0,0.0,0.0,0.0,0.0,0.0,0.0,0.0,0.0,0.0,0.0,0.0,1,1,1,34.243843029428376,-111.30834883358699
104586001,Embry-Riddle Aeronautical University-Prescott,147902,Embry-Riddle Aeronautical University - Prescott,One Aerospace Blvd.,Daytona Beach,AZ,32114,2,"Private nonprofit, 4-year or above",2295.0,867.0,3162.0,,,,,,,,,,,,0.0,0.0,0.0,0.0,0.0,0.0,0.0,0.0,0.0,0.0,0.0,0.0,0.0,0.0,0.0,0.0,0.0,0.0,0.0,0.0,0.0,0.0,1,1,1,,
104665001,The School of Architecture,2533200,Cosanti,6433 Doubletree Ranch Road,Paradise Valley,AZ,85253,2,"Private nonprofit, 4-year or above",5.0,1.0,6.0,,,,,,,,,,,,,,,,,,,,,,,,,,,,,,,,,,1,1,1,33.567477261059736,-111.94263191181889
104665002,The School of Architecture,2533200,Arcosanti,13555 S Cross L Road,MAYER,AZ,86333,2,"Private nonprofit, 4-year or above",5.0,1.0,6.0,,,,,,,,,,,,,,,,,,,,,,,,,,,,,,,,,,1,1,1,,
104708001,Glendale Community College,107600,Main Campus,6000 W OLIVE AVE,GLENDALE,AZ,85302,4,"Public, 2-year",5915.0,7427.0,13342.0,,,,,,,,,,,,,,,,,,,,,,,,,,,,,,,,,,1,1,1,,
104708002,Glendale Community College,107600,North Campus,5727 W. Happy Valley Road,Phoenix,AZ,85310,4,"Public, 2-year",5915.0,7427.0,13342.0,,,,,,,,,,,,,,,,,,,,,,,,,,,,,,,,,,1,1,1,33.71182605,-112.1872171266919
104717001,Grand Canyon University,107400,Grand Canyon University,3300 W CAMELBACK RD,PHOENIX,AZ,85017,3,"Private for-profit, 4-year or above",27888.0,73928.0,101816.0,0.0,0.0,0.0,0.0,0.0,0.0,0.0,0.0,1.0,0.0,0.0,0.0,0.0,0.0,0.0,0.0,0.0,0.0,0.0,0.0,1.0,0.0,0.0,0.0,0.0,0.0,0.0,0.0,0.0,0.0,0.0,1.0,0.0,1,1,1,33.512411,-112.1333961
105145001,GateWay Community College,830300,Washington Campus,108 N. 40TH Street,Phoenix,AZ,85034,4,"Public, 2-year",1663.0,3036.0,4699.0,0.0,0.0,0.0,0.0,0.0,0.0,0.0,0.0,0.0,0.0,0.0,,,,,,,,,,,,,,,,,,,,,,,1,1,1,,
105145002,GateWay Community College,830300,Deer Valley Campus,2931 W Bell Rd,Phoenix,AZ,850533024,4,"Public, 2-year",1663.0,3036.0,4699.0,,,,,,,,,,,,,,,,,,,,,,,,,,,,,,,,,,1,1,1,33.639711703945615,-112.12212509877375
105145003,GateWay Community College,830300,Gateway 18th Street ,555 N 18th Street,Phoenix,AZ,85006,4,"Public, 2-year",1663.0,3036.0,4699.0,,,,,,,,,,,,,,,,,,,,,,,,,,,,,,,,,,0,1,1,,
105154001,Mesa Community College,107700,Mesa Community College,1833 W SOUTHERN AVE,MESA,AZ,85202,4,"Public, 2-year",7109.0,8663.0,15772.0,,,,,,,,,,,,,,,,,,,,,,,,,,,,,,,,,,1,1,1,33.389666,-111.87020543176769
105154002,Mesa Community College,107700,Red Mountain Campus,7110 E. McKellips Rd.,Mesa,AZ,85207,4,"Public, 2-year",7109.0,8663.0,15772.0,,,,,,,,,,,,,,,,,,,,,,,,,,,,,,,,,,1,1,1,33.455855150000005,-111.67930345123648
105154003,Mesa Community College,107700,Downtown Center,145 North Centennial Way,Mesa,AZ,85201,4,"Public, 2-year",7109.0,8663.0,15772.0,,,,,,,,,,,,,,,,,,,,,,,,,,,,,,,,,,1,1,1,33.41876765000001,-111.82796719983347
105206001,Mohave Community College,1186400,Neal Campus - Kingman,1971 Jagerson Ave,Kingman,AZ,864091238,4,"Public, 2-year",1285.0,2753.0,4038.0,0.0,0.0,0.0,0.0,0.0,0.0,0.0,0.0,0.0,0.0,0.0,0.0,0.0,0.0,0.0,0.0,0.0,0.0,0.0,0.0,0.0,0.0,0.0,0.0,0.0,0.0,0.0,0.0,0.0,0.0,0.0,0.0,0.0,1,1,1,35.2702299,-114.0268497
105206002,Mohave Community College,1186400,Lake Havasu City Campus,1977 West Acoma Blvd,Lake Havasu City,AZ,86403,4,"Public, 2-year",1285.0,2753.0,4038.0,,,,,,,,,,,,,,,,,,,,,,,,,,,,,,,,,,1,1,1,34.49621531477594,-114.34358644740394
105206003,Mohave Community College,1186400,Bullhead City Campus,3400 Highway 95,Bullhead City,AZ,86442,4,"Public, 2-year",1285.0,2753.0,4038.0,,,,,,,,,,,,,,,,,,,,,,,,,,,,,,,,,,1,1,1,38.5245013,-118.6109923
105206004,Mohave Community College,1186400,North Mohave Campus,480 South Central,Colorado City,AZ,86021,4,"Public, 2-year",1285.0,2753.0,4038.0,,,,,,,,,,,,,,,,,,,,,,,,,,,,,,,,,,1,1,1,46.88384520408163,-124.11023765306122
105215001,Universal Technical Institute of Arizona Inc-Motorcycle Mechanics Institute Division,2100500,Universal Technical Institute-Motorcycle Mechanics Institute Division,"10695 West Pierce Street, Suite 200",Avondale,AZ,85323,6,"Private for-profit, 2-year",612.0,46.0,658.0,,,,,,,,,,,,,,,,,,,,,,,,,,,,,,,,,,1,1,1,,
105297001,Dine College,824600,Main Campus,"Route 12, Security Modular Building",TSAILE,AZ,86556,1,"Public, 4-year or above",391.0,1161.0,1552.0,,,,,,,,,,,,0.0,0.0,0.0,0.0,0.0,0.0,0.0,0.0,3.0,0.0,0.0,,,,,,,,,,,,1,1,1,,
105297002,Dine College,824600,Shiprock,Box 580,Shiprock,NM,87420,1,"Public, 4-year or above",391.0,1161.0,1552.0,,,,,,,,,,,,,,,,,,,,,,,,,,,,,,,,,,1,1,1,44.10037955,-103.14601468505296
105297003,Dine College,824600,Crownpoint,Box 57,Crownpoint,NM,87313,1,"Public, 4-year or above",391.0,1161.0,1552.0,,,,,,,,,,,,,,,,,,,,,,,,,,,,,,,,,,1,1,1,-22.121490199999997,-51.418639150000004
105297004,Dine College,824600,Window Rock,Box 1924,Window Rock,AZ,86515,1,"Public, 4-year or above",391.0,1161.0,1552.0,,,,,,,,,,,,,,,,,,,,,,,,,,,,,,,,,,1,1,1,,
105297005,Dine College,824600,Chinle,Box 1997,Chinle,AZ,86503,1,"Public, 4-year or above",391.0,1161.0,1552.0,,,,,,,,,,,,,,,,,,,,,,,,,,,,,,,,,,1,1,1,51.4211867,-2.250245659178315
105297007,Dine College,824600,Tuba City,Box 1716,Tuba City,AZ,86045,1,"Public, 4-year or above",391.0,1161.0,1552.0,,,,,,,,,,,,,,,,,,,,,,,,,,,,,,,,,,1,1,1,,
105330001,Northern Arizona University,108200,Flagstaff Mountain Campus,1900 S Knoles Dr,FLAGSTAFF,AZ,86011,1,"Public, 4-year or above",10274.0,17812.0,28086.0,0.0,0.0,0.0,0.0,0.0,0.0,0.0,0.0,0.0,0.0,0.0,0.0,0.0,0.0,0.0,0.0,0.0,0.0,2.0,0.0,0.0,0.0,0.0,0.0,1.0,0.0,0.0,0.0,0.0,2.0,0.0,0.0,0.0,1,1,1,35.18008625,-111.65769980032917
105330003,Northern Arizona University,108200,NAU at Chandler-Gilbert Community College,2626 E. Pecos Rd,Chandler,AZ,85225,1,"Public, 4-year or above",10274.0,17812.0,28086.0,,,,,,,,,,,,,,,,,,,,,,,,,,,,,,,,,,1,1,1,33.29553575,-111.7941113987554
105330005,Northern Arizona University,108200,NAU at Mesa Community College,1833 W. Southern Ave,Mesa,AZ,85202,1,"Public, 4-year or above",10274.0,17812.0,28086.0,,,,,,,,,,,,,,,,,,,,,,,,,,,,,,,,,,1,1,1,33.389666,-111.87020543176769
105330006,Northern Arizona University,108200,NAU at Estrella Mountain Community College,3000 N. Dysart Rd,Avondale,AZ,85392,1,"Public, 4-year or above",10274.0,17812.0,28086.0,,,,,,,,,,,,,,,,,,,,,,,,,,,,,,,,,,1,1,1,,
105330007,Northern Arizona University,108200,NAU at Glendale Community College,6000 W. Olive Ave,Glendale,AZ,85302,1,"Public, 4-year or above",10274.0,17812.0,28086.0,,,,,,,,,,,,,,,,,,,,,,,,,,,,,,,,,,1,1,1,33.57097265,-112.19062372210072
105330009,Northern Arizona University,108200,NAU - Kingman,1971 Jagerson Ave,Kingman,AZ,86409,1,"Public, 4-year or above",10274.0,17812.0,28086.0,0.0,0.0,0.0,0.0,0.0,0.0,0.0,0.0,0.0,0.0,0.0,0.0,0.0,0.0,0.0,0.0,0.0,0.0,0.0,0.0,0.0,0.0,,,,,,,,,,,,1,1,1,35.2702299,-114.0268497
105330010,Northern Arizona University,108200,NAU - North Valley,15451 N 28th Ave,Phoenix,AZ,85053,1,"Public, 4-year or above",10274.0,17812.0,28086.0,0.0,0.0,0.0,0.0,0.0,0.0,0.0,0.0,0.0,0.0,0.0,0.0,0.0,0.0,0.0,0.0,0.0,0.0,0.0,0.0,0.0,0.0,0.0,0.0,0.0,0.0,0.0,0.0,0.0,0.0,0.0,0.0,0.0,1,1,1,,
105330011,Northern Arizona University,108200,NAU at Paradise Valley Community College,18401 N. 32nd St,Phoenix,AZ,85032,1,"Public, 4-year or above",10274.0,17812.0,28086.0,,,,,,,,,,,,,,,,,,,,,,,,,,,,,,,,,,1,1,1,,
105330012,Northern Arizona University,108200,NAU at Phoenix College,1202 W. Thomas Rd,Phoenix,AZ,85013,1,"Public, 4-year or above",10274.0,17812.0,28086.0,,,,,,,,,,,,,,,,,,,,,,,,,,,,,,,,,,1,1,1,33.4805182,-112.087543
105330013,Northern Arizona University,108200,NAU at Scottsdale Community College,9000 E. Chaparral Rd,Scottsdale,AZ,85256,1,"Public, 4-year or above",10274.0,17812.0,28086.0,0.0,0.0,0.0,0.0,0.0,0.0,0.0,0.0,0.0,0.0,0.0,0.0,0.0,0.0,0.0,0.0,0.0,0.0,0.0,0.0,0.0,0.0,,,,,,,,,,,,1,1,1,33.5142838,-111.8867022
105330014,Northern Arizona University,108200,NAU-Show Low,1001 W. Deuce of Clubs,Show Low,AZ,85901,1,"Public, 4-year or above",10274.0,17812.0,28086.0,0.0,0.0,0.0,0.0,0.0,0.0,0.0,0.0,0.0,0.0,0.0,0.0,0.0,0.0,0.0,0.0,0.0,0.0,0.0,0.0,0.0,0.0,,,,,,,,,,,,1,1,1,34.2431437,-110.0544201
105330016,Northern Arizona University,108200,NAU at South Mountain Community College,7050 S. 24th St,Phoenix,AZ,85042,1,"Public, 4-year or above",10274.0,17812.0,28086.0,,,,,,,,,,,,,,,,,,,,,,,,,,,,,,,,,,1,1,1,,
105330018,Northern Arizona University,108200,NAU - Tucson,2202 West Anklam Rd,Tucson,AZ,85709,1,"Public, 4-year or above",10274.0,17812.0,28086.0,0.0,0.0,0.0,0.0,0.0,0.0,0.0,0.0,0.0,0.0,0.0,0.0,0.0,0.0,0.0,0.0,0.0,0.0,0.0,0.0,0.0,0.0,0.0,0.0,0.0,0.0,0.0,0.0,0.0,0.0,0.0,0.0,0.0,1,1,1,32.22505613772684,-111.01200789775592
105330020,Northern Arizona University,108200,NAU-Yavapai (Prescott Valley),7351 E. Skoog Blvd,Prescott Valley,AZ,86314,1,"Public, 4-year or above",10274.0,17812.0,28086.0,,,,,,,,,,,,,,,,,,,,,,,,,,,,,,,,,,1,1,1,,
105330021,Northern Arizona University,108200,NAU - Yuma,2020 South Avenue 8E,Yuma,AZ,85365,1,"Public, 4-year or above",10274.0,17812.0,28086.0,,,,,,,,,,,,,,,,,,,,,,,,,,,,,,,,,,1,1,1,,
105330025,Northern Arizona University,108200,NAU-Phoenix Bioscience Core,435 N 5th St,Phoenix,AZ,85004,1,"Public, 4-year or above",10274.0,17812.0,28086.0,,,,,,,,,,,,0.0,0.0,0.0,0.0,0.0,0.0,0.0,0.0,0.0,0.0,0.0,0.0,0.0,0.0,0.0,0.0,0.0,0.0,0.0,0.0,0.0,0.0,1,1,1,,
105330033,Northern Arizona University,108200,NAU-Bullhead City,3400 Highway 95,Bullhead City,AZ,86442,1,"Public, 4-year or above",10274.0,17812.0,28086.0,,,,,,,,,,,,,,,,,,,,,,,,,,,,,,,,,,0,0,1,38.5245013,-118.6109923
105330034,Northern Arizona University,108200,NAU-Lake Havasu City,1977 Acoma Blvd West,Lake Havasu City,AZ,86403,1,"Public, 4-year or above",10274.0,17812.0,28086.0,,,,,,,,,,,,,,,,,,,,,,,,,,,,,,,,,,0,0,1,34.49621531477594,-114.34358644740394
105349001,Northland Pioneer College,1186200,Main Campus - Painted Desert - PDC,2251 E. Navajo Blvd.,Holbrook,AZ,860250610,4,"Public, 2-year",991.0,1749.0,2740.0,0.0,0.0,0.0,0.0,0.0,0.0,0.0,0.0,0.0,0.0,0.0,0.0,0.0,0.0,0.0,0.0,0.0,0.0,0.0,0.0,0.0,0.0,0.0,0.0,0.0,0.0,0.0,0.0,0.0,0.0,0.0,0.0,0.0,1,1,1,,
105349002,Northland Pioneer College,1186200,Little Colorado Campus - LCC,1400 E. Third St.,Winslow,AZ,860479998,4,"Public, 2-year",991.0,1749.0,2740.0,0.0,0.0,0.0,0.0,0.0,0.0,0.0,0.0,0.0,0.0,0.0,0.0,0.0,0.0,0.0,0.0,0.0,0.0,0.0,0.0,0.0,0.0,0.0,0.0,0.0,0.0,0.0,0.0,0.0,0.0,0.0,0.0,0.0,1,1,1,,
105349003,Northland Pioneer College,1186200,Silver Creek Campus - SCC,1610 S. Main St.,Snowflake,AZ,859379998,4,"Public, 2-year",991.0,1749.0,2740.0,0.0,0.0,0.0,0.0,0.0,0.0,0.0,0.0,0.0,0.0,0.0,0.0,0.0,0.0,0.0,0.0,0.0,0.0,0.0,0.0,0.0,0.0,0.0,0.0,0.0,0.0,0.0,0.0,0.0,0.0,0.0,0.0,0.0,1,1,1,,
105349004,Northland Pioneer College,1186200,White Mountain Campus - WMC,1001 W. Duece of Clubs,Show Low,AZ,859019998,4,"Public, 2-year",991.0,1749.0,2740.0,0.0,0.0,0.0,0.0,0.0,0.0,0.0,0.0,0.0,0.0,0.0,0.0,0.0,0.0,0.0,0.0,0.0,0.0,0.0,1.0,0.0,0.0,0.0,0.0,0.0,0.0,0.0,0.0,0.0,0.0,0.0,0.0,0.0,1,1,1,,
105349006,Northland Pioneer College,1186200,Hopi Center,State HIghway 264 at Junction to Hopi Jr/Sr High School,Keams Canyon,AZ,860349998,4,"Public, 2-year",991.0,1749.0,2740.0,0.0,0.0,0.0,0.0,0.0,0.0,0.0,0.0,0.0,0.0,0.0,0.0,0.0,0.0,0.0,0.0,0.0,0.0,0.0,0.0,0.0,0.0,0.0,0.0,0.0,0.0,0.0,0.0,0.0,0.0,0.0,0.0,0.0,1,1,1,,
105349007,Northland Pioneer College,1186200,Kayenta Center,1/4 mile North on Highway 163,Kayenta,AZ,860339998,4,"Public, 2-year",991.0,1749.0,2740.0,0.0,0.0,0.0,0.0,0.0,0.0,0.0,0.0,0.0,0.0,0.0,0.0,0.0,0.0,0.0,0.0,0.0,0.0,0.0,0.0,0.0,0.0,0.0,0.0,0.0,0.0,0.0,0.0,0.0,0.0,0.0,0.0,0.0,1,1,1,,
105349008,Northland Pioneer College,1186200,Springerville/Eagar Center,940 E. Maricopa St.,Springerville,AZ,859389998,4,"Public, 2-year",991.0,1749.0,2740.0,0.0,0.0,0.0,0.0,0.0,0.0,0.0,0.0,0.0,0.0,0.0,0.0,0.0,0.0,0.0,0.0,0.0,0.0,0.0,0.0,0.0,0.0,0.0,0.0,0.0,0.0,0.0,0.0,0.0,0.0,0.0,0.0,0.0,1,1,1,,
105349009,Northland Pioneer College,1186200,St. Johns Center,65 West 3rd South,Saint Johns,AZ,859369998,4,"Public, 2-year",991.0,1749.0,2740.0,0.0,0.0,0.0,0.0,0.0,0.0,0.0,0.0,0.0,0.0,0.0,0.0,0.0,0.0,0.0,0.0,0.0,0.0,0.0,0.0,0.0,0.0,0.0,0.0,0.0,0.0,0.0,0.0,0.0,0.0,0.0,0.0,0.0,1,1,1,41.52607565613598,-109.47167596222351
105349010,Northland Pioneer College,1186200,Whiteriver Center,720 S. Chief,Whiteriver,AZ,859419998,4,"Public, 2-year",991.0,1749.0,2740.0,0.0,0.0,0.0,0.0,0.0,0.0,0.0,0.0,0.0,0.0,0.0,0.0,0.0,0.0,0.0,0.0,0.0,0.0,0.0,0.0,0.0,0.0,0.0,0.0,0.0,0.0,0.0,0.0,0.0,0.0,0.0,0.0,0.0,1,1,1,,
105428001,Phoenix College,107800,Phoenix College,1202 W Thomas Rd,Phoenix,AZ,85013,4,"Public, 2-year",3519.0,6130.0,9649.0,,,,,,,,,,,,0.0,0.0,0.0,0.0,0.0,0.0,0.0,0.0,0.0,0.0,0.0,,,,,,,,,,,,1,1,1,33.4805182,-112.087543
105428002,Phoenix College,107800,Phoenix College Downtown,640 N 1st Avenue,Phoenix,AZ,85003,4,"Public, 2-year",3519.0,6130.0,9649.0,,,,,,,,,,,,,,,,,,,,,,,,,,,,,,,,,,1,1,1,33.4562005,-112.07550467785235
105428003,Phoenix College,107800,Center For Nursing Excellence,3700 North 3rd Ave,Phoenix,AZ,85013,4,"Public, 2-year",3519.0,6130.0,9649.0,,,,,,,,,,,,,,,,,,,,,,,,,,,,,,,,,,1,1,1,33.4906714,-112.07863375005496
105525001,Pima Community College,726600,West Campus,2202 W. Anklam Rd.,Tucson,AZ,857090001,4,"Public, 2-year",6575.0,8718.0,15293.0,0.0,0.0,0.0,0.0,0.0,0.0,0.0,0.0,1.0,0.0,1.0,0.0,0.0,0.0,0.0,0.0,0.0,0.0,0.0,0.0,0.0,0.0,0.0,0.0,0.0,0.0,0.0,0.0,0.0,0.0,0.0,0.0,0.0,1,1,1,32.22505613772684,-111.01200789775592
105525002,Pima Community College,726600,Downtown Campus,1255 N. Stone Ave.,Tucson,AZ,857073000,4,"Public, 2-year",6575.0,8718.0,15293.0,0.0,0.0,0.0,0.0,0.0,0.0,0.0,0.0,0.0,0.0,0.0,0.0,0.0,0.0,0.0,0.0,0.0,0.0,0.0,0.0,0.0,0.0,0.0,0.0,0.0,0.0,0.0,0.0,0.0,0.0,0.0,0.0,0.0,1,1,1,32.23789279410191,-110.9719027160449
105525005,Pima Community College,726600,East Campus,8181 E. Irvington Rd.,Tucson,AZ,857094000,4,"Public, 2-year",6575.0,8718.0,15293.0,0.0,0.0,0.0,0.0,0.0,0.0,0.0,0.0,0.0,0.0,0.0,0.0,0.0,0.0,0.0,0.0,0.0,0.0,0.0,0.0,0.0,0.0,0.0,0.0,0.0,0.0,0.0,0.0,0.0,0.0,0.0,0.0,0.0,1,1,1,,
105525006,Pima Community College,726600,Desert Vista Campus,5901 S. Calle Santa Cruz,Tucson,AZ,857096000,4,"Public, 2-year",6575.0,8718.0,15293.0,0.0,0.0,0.0,0.0,0.0,0.0,0.0,0.0,0.0,0.0,0.0,0.0,0.0,0.0,0.0,0.0,0.0,0.0,0.0,0.0,0.0,0.0,0.0,0.0,0.0,0.0,0.0,0.0,0.0,0.0,0.0,0.0,0.0,1,1,1,,
105525008,Pima Community College,726600,Northwest Campus,7600 N. Shannon,Tucson,AZ,857095200,4,"Public, 2-year",6575.0,8718.0,15293.0,0.0,0.0,0.0,0.0,0.0,0.0,0.0,0.0,0.0,0.0,0.0,0.0,0.0,0.0,0.0,0.0,0.0,0.0,0.0,0.0,0.0,0.0,0.0,0.0,0.0,0.0,0.0,0.0,0.0,0.0,0.0,0.0,0.0,1,1,1,,
105525010,Pima Community College,726600,El Rio Adult Education Center,1390 W. Speedway Blvd.,Tucson,AZ,85709,4,"Public, 2-year",6575.0,8718.0,15293.0,0.0,0.0,0.0,0.0,0.0,0.0,0.0,0.0,0.0,0.0,0.0,0.0,0.0,0.0,0.0,0.0,0.0,0.0,0.0,0.0,0.0,0.0,0.0,0.0,0.0,0.0,0.0,0.0,0.0,0.0,0.0,0.0,0.0,1,1,1,32.2357696112692,-110.99635699559043
105525011,Pima Community College,726600,El Pueblo Adult Education Center,101 W. Irvington Rd.,Tucson,AZ,85709,4,"Public, 2-year",6575.0,8718.0,15293.0,0.0,0.0,0.0,0.0,0.0,0.0,0.0,0.0,0.0,0.0,0.0,0.0,0.0,0.0,0.0,0.0,0.0,0.0,0.0,0.0,0.0,0.0,0.0,0.0,0.0,0.0,0.0,0.0,0.0,0.0,0.0,0.0,0.0,1,1,1,32.16316794949495,-110.97038317171717
105525015,Pima Community College,726600,Aviation Technology Center,7211 S. Park,Tucson,AZ,857095500,4,"Public, 2-year",6575.0,8718.0,15293.0,0.0,0.0,0.0,0.0,0.0,0.0,0.0,0.0,0.0,0.0,0.0,0.0,0.0,0.0,0.0,0.0,0.0,0.0,0.0,0.0,0.0,0.0,0.0,0.0,0.0,0.0,0.0,0.0,0.0,0.0,0.0,0.0,0.0,1,1,1,,
105525016,Pima Community College,726600,29th Street Coalition Center,4355 S. Calle Aurora,Tucson,AZ,857095520,4,"Public, 2-year",6575.0,8718.0,15293.0,0.0,0.0,0.0,0.0,0.0,0.0,0.0,0.0,0.0,0.0,0.0,0.0,0.0,0.0,0.0,0.0,0.0,0.0,0.0,0.0,0.0,0.0,0.0,0.0,0.0,0.0,0.0,0.0,0.0,0.0,0.0,0.0,0.0,1,1,1,,
105525017,Pima Community College,726600,Maintenance and Security,6680 S. Country Club,Tucson,AZ,857091740,4,"Public, 2-year",6575.0,8718.0,15293.0,0.0,0.0,0.0,0.0,0.0,0.0,0.0,0.0,0.0,0.0,0.0,0.0,0.0,0.0,0.0,0.0,0.0,0.0,0.0,0.0,0.0,0.0,0.0,0.0,0.0,1.0,0.0,0.0,0.0,0.0,0.0,0.0,0.0,1,1,1,,
105534001,Pima Medical Institute-Tucson,2217100,Tucson Campus,"2121 N. Craycroft Road, Building 1",TUCSON,AZ,85712,3,"Private for-profit, 4-year or above",505.0,2084.0,2589.0,,,,,,,,,,,,,,,,,,,,,,,,,,,,,,,,,,1,1,1,32.2242849,-110.875227
105543001,Pima Medical Institute-Albuquerque,3678300,Albuquerque Campus,4400 Cutler Avenue NE,ALBUQUERQUE,NM,87110,6,"Private for-profit, 2-year",111.0,579.0,690.0,,,,,,,,,,,,,,,,,,,,,,,,,,,,,,,,,,1,1,1,35.104916149999994,-106.59479111326203
105589001,Prescott College,2065300,Prescott College,220 GROVE AVE,PRESCOTT,AZ,86301,2,"Private nonprofit, 4-year or above",244.0,725.0,969.0,,,,,,,,,,,,,,,,,,,,,,,,,,,,,,,,,,1,1,1,,
105659001,Refrigeration School Inc,1168900,Main Campus,4210 E WASHINGTON STREET,PHOENIX,AZ,850341816,6,"Private for-profit, 2-year",916.0,90.0,1006.0,,,,,,,,,,,,,,,,,,,,,,,,,,,,,,,,,,1,1,1,,
105668001,Rio Salado College,2177500,Main Campus-Tempe,2323 W 14TH ST,Tempe,AZ,852816950,4,"Public, 2-year",6879.0,10199.0,17078.0,,,,,,,,,,,,,,,,,,,,,,,,,,,,,,,,,,1,1,1,33.4119514,-111.9731807
105668002,Rio Salado College,2177500,"Rio Salado College, Surprise",12535 Smokey Drive,Surprise,AZ,85378,4,"Public, 2-year",6879.0,10199.0,17078.0,,,,,,,,,,,,,,,,,,,,,,,0.0,0.0,0.0,0.0,0.0,0.0,0.0,0.0,0.0,0.0,0.0,1,1,1,33.63711255,-112.33020046504188
105668005,Rio Salado College,2177500,Rio Salado College - Avondale,420 North Central Avenue,Avondale,AZ,85323,4,"Public, 2-year",6879.0,10199.0,17078.0,,,,,,,,,,,,,,,,,,,,,,,,,,,,,,,,,,1,1,1,46.6753363,-90.89386275485313
105668006,Rio Salado College,2177500,Rio Salado College - Downtown,619 North 7th Avenue,Phoenix,AZ,85007,4,"Public, 2-year",6879.0,10199.0,17078.0,,,,,,,,,,,,,,,,,,,,,,,,,,,,,,,,,,1,1,1,33.45539142157239,-112.08247249258244
105668008,Rio Salado College,2177500,Rio Salado College - Southern,3320 South Price Road,Tempe,AZ,85282,4,"Public, 2-year",6879.0,10199.0,17078.0,,,,,,,,,,,,,,,,,,,,,,,,,,,,,,,,,,1,1,1,33.3924132,-111.8945567
105668009,Rio Salado College,2177500,Rio Salado College - Luke Air Force Base,"7383 North Litchfield Road, 56th Mission Support Center, Room 3138",Glendale,AZ,85309,4,"Public, 2-year",6879.0,10199.0,17078.0,,,,,,,,,,,,,,,,,,,,,,,,,,,,,,,,,,1,1,1,,
105668010,Rio Salado College,2177500,Rio Salado College - Northern,1715 West Northern Avenue,Phoenix,AZ,85021,4,"Public, 2-year",6879.0,10199.0,17078.0,,,,,,,,,,,,,,,,,,,,,,,,,,,,,,,,,,1,1,1,30.21487725870607,-92.39490847910344
105668011,Rio Salado College,2177500,Rio Salado College - East Valley Veterans Educational Center,3320 South Price Road,Tempe,AZ,85282,4,"Public, 2-year",6879.0,10199.0,17078.0,,,,,,,,,,,,0.0,0.0,0.0,0.0,0.0,0.0,0.0,0.0,0.0,0.0,0.0,,,,,,,,,,,,1,1,1,33.3924132,-111.8945567
105668013,Rio Salado College,2177500,Rio Salado College- Thomas,3631 W. Thomas Rd,Phoenix,AZ,85019,4,"Public, 2-year",6879.0,10199.0,17078.0,,,,,,,,,,,,,,,,,,,,,,,,,,,,,,,,,,1,1,1,33.4799453,-112.13823793882943
105677001,Roberto-Venn School of Luthiery,2113800,Main Campus,1012 NW Grand Ave,PHOENIX,AZ,85007,9,"Private for-profit, less-than 2-year",26.0,1.0,27.0,,,,,,,,,,,,,,,,,,,,,,,,,,,,,,,,,,1,1,1,,
105747001,Scottsdale Community College,830400,Main Campus,9000 E CHAPARRAL RD,SCOTTSDALE,AZ,85256,4,"Public, 2-year",3115.0,3950.0,7065.0,,,,,,,,,,,,,,,,,,,,,,,0.0,0.0,0.0,0.0,0.0,0.0,0.0,0.0,0.0,0.0,0.0,1,1,1,33.5142838,-111.8867022
105792001,South Mountain Community College,2146600,SOUTH MOUNTAIN COMMUNITY COLLEGE,7050 S 24TH ST,PHOENIX,AZ,85042,4,"Public, 2-year",1539.0,2167.0,3706.0,,,,,,,,,,,,0.0,0.0,0.0,0.0,0.0,0.0,0.0,0.0,0.0,0.0,0.0,,,,,,,,,,,,1,1,1,,
105792002,South Mountain Community College,2146600,Guadalupe Campus,9233 South Avenida del Yaqui,Guadalupe,AZ,85283,4,"Public, 2-year",1539.0,2167.0,3706.0,,,,,,,,,,,,0.0,0.0,0.0,0.0,0.0,0.0,0.0,0.0,0.0,0.0,0.0,,,,,,,,,,,,1,1,1,33.3621627,-111.9621021583842
105792004,South Mountain Community College,2146600,Laveen Campus,7900 South 43rd Avenue,Laveen,AZ,85339,4,"Public, 2-year",1539.0,2167.0,3706.0,,,,,,,,,,,,0.0,0.0,0.0,0.0,0.0,0.0,0.0,0.0,0.0,0.0,0.0,,,,,,,,,,,,1,1,1,33.3750028,-112.1523019
105899001,Arizona Christian University,711300,Arizona Christian University,1 W. Firestorm Way,Glendale,AZ,85306,2,"Private nonprofit, 4-year or above",654.0,428.0,1082.0,,,,,,,,,,,,,,,,,,,,,,,,,,,,,,,,,,1,1,1,33.6218778,-112.18135889999999
106041001,Universal Technical Institute of Arizona Inc,822100,"Universal Technical Institute of Arizona, Inc.","10695 West Pierce Street, Suite 100",Avondale,AZ,85323,6,"Private for-profit, 2-year",1864.0,108.0,1972.0,,,,,,,,,,,,,,,,,,,,,,,,,,,,,,,,,,1,1,1,,
106148001,Yavapai College,107900,Yavapai College - Prescott Campus,1100 E Sheldon St,Prescott,AZ,86301,4,"Public, 2-year",2967.0,4030.0,6997.0,0.0,0.0,1.0,0.0,0.0,0.0,0.0,0.0,0.0,0.0,0.0,0.0,0.0,0.0,0.0,0.0,0.0,0.0,0.0,0.0,0.0,0.0,0.0,0.0,0.0,0.0,0.0,0.0,0.0,0.0,0.0,0.0,0.0,1,1,1,34.54519939828411,-112.45592463465582
106148002,Yavapai College,107900,Yavapai College -Verde Valley Campus,601 Black Hills Dr.,Clarkdale,AZ,86324,4,"Public, 2-year",2967.0,4030.0,6997.0,,,,,,,,,,,,,,,,,,,,,,,,,,,,,,,,,,1,1,1,32.547979,-97.349825
106148003,Yavapai College,107900,Yavapai College - Chino Agribusiness,2275 Old Home Manor Drive,Chino Valley,AZ,86323,4,"Public, 2-year",2967.0,4030.0,6997.0,,,,,,,,,,,,,,,,,,,,,,,,,,,,,,,,,,1,1,1,40.546786,-79.090293
106148004,Yavapai College,107900,Yavapai College - Prescott Valley Extension,3800 N Glassford Hill,Prescott Valley,AZ,86314,4,"Public, 2-year",2967.0,4030.0,6997.0,,,,,,,,,,,,,,,,,,,,,,,,,,,,,,,,,,1,1,1,34.59746454853956,-112.3415125637587
106148005,Yavapai College,107900,Yavapai College - Sedona Center,4215 Arts Village Dr,Sedona,AZ,86336,4,"Public, 2-year",2967.0,4030.0,6997.0,,,,,,,,,,,,,,,,,,,,,,,,,,,,,,,,,,1,1,1,34.85006960655369,-111.8318271384277
106148006,Yavapai College,107900,Yavapai College - CTEC Campus,220 Ruger Rd Ste.1,Prescott,AZ,86301,4,"Public, 2-year",2967.0,4030.0,6997.0,,,,,,,,,,,,,,,,,,,,,,,,,,,,,,,,,,1,1,1,,
106245001,University of Arkansas at Little Rock,110100,"University of Arkansas, Little Rock",2801 S UNIVERSITY AVE,LITTLE ROCK,AR,72204,1,"Public, 4-year or above",3175.0,5022.0,8197.0,0.0,0.0,0.0,0.0,0.0,0.0,0.0,0.0,0.0,0.0,0.0,0.0,0.0,0.0,0.0,0.0,0.0,0.0,0.0,0.0,0.0,0.0,,,,,,,,,,,,1,1,1,34.72328815,-92.34143147613224
106245002,University of Arkansas at Little Rock,110100,William H. Bowen School of Law,1201 McMath Avenue,Little Rock,AR,72202,1,"Public, 4-year or above",3175.0,5022.0,8197.0,,,,,,,,,,,,,,,,,,,,,,,,,,,,,,,,,,1,1,1,34.7357361,-92.26288074984035
106245004,University of Arkansas at Little Rock,110100,Clinton School of Public Service,1200 President Clinton Avenue,Little Rock,AR,72201,1,"Public, 4-year or above",3175.0,5022.0,8197.0,,,,,,,,,,,,,,,,,,,,,,,,,,,,,,,,,,1,1,1,34.74626695,-92.25839996761857
106263001,University of Arkansas for Medical Sciences,110900,University of Arkansas for Medical Sciences,4301 W MARKHAM SLOT 583,LITTLE ROCK,AR,72205,1,"Public, 4-year or above",921.0,2319.0,3240.0,0.0,0.0,0.0,0.0,0.0,0.0,1.0,0.0,4.0,4.0,0.0,0.0,0.0,0.0,0.0,0.0,0.0,0.0,0.0,3.0,1.0,0.0,0.0,0.0,0.0,0.0,0.0,0.0,1.0,0.0,1.0,0.0,0.0,1,1,1,,
106263002,University of Arkansas for Medical Sciences,110900,UAMS Northwest,1125 N. College Ave. ,Fayetteville,AR,72703,1,"Public, 4-year or above",921.0,2319.0,3240.0,,,,,,,,,,,,,,,,,,,,,,,0.0,0.0,0.0,0.0,0.0,0.0,0.0,0.0,0.0,0.0,0.0,1,1,1,,
106306001,Arkansas Baptist College,108700,Arkansas Baptist College,1600 Martin Luther King Drive,LITTLE ROCK,AR,722026099,2,"Private nonprofit, 4-year or above",381.0,116.0,497.0,0.0,0.0,0.0,0.0,0.0,0.0,0.0,0.0,0.0,0.0,0.0,0.0,0.0,0.0,0.0,0.0,0.0,0.0,0.0,0.0,0.0,0.0,0.0,0.0,0.0,0.0,0.0,0.0,0.0,0.0,0.0,0.0,0.0,1,1,1,,
106315001,Arkansas Beauty School-Little Rock,3005100,Main Campus,8521 Geyer Springs Road Unit 30,LITTLE ROCK,AR,72209,9,"Private for-profit, less-than 2-year",2.0,96.0,98.0,,,,,,,,,,,,,,,,,,,,,,,,,,,,,,,,,,1,1,1,34.6251248,-92.3466696
106324001,Arkansas Beauty College,3997300,Arkansas Beauty College,109 N Commerce St,Russellville,AR,72801,9,"Private for-profit, less-than 2-year",1.0,28.0,29.0,,,,,,,,,,,,,,,,,,,,,,,,,,,,,,,,,,1,1,1,31.25712063117993,-100.81466653073501
106342001,Lyon College,108800,Main Campus,2300 HIGHLAND ROAD,BATESVILLE,AR,72501,2,"Private nonprofit, 4-year or above",295.0,201.0,496.0,0.0,0.0,0.0,0.0,0.0,0.0,0.0,0.0,0.0,0.0,0.0,0.0,0.0,0.0,0.0,0.0,0.0,0.0,0.0,0.0,0.0,0.0,,,,,,,,,,,,1,1,1,,
106351001,Arkansas Technical School,3023400,Arkansas College of Barbering and Hair Design,200 E WASHINGTON AVE,NORTH LITTLE ROCK,AR,72114,9,"Private for-profit, less-than 2-year",29.0,31.0,60.0,,,,,,,,,,,,,,,,,,,,,,,,,,,,,,,,,,1,1,1,,
106351002,Arkansas Technical School,3023400,Arkansas College of Barbering and Hair Design,9100 North Rodney Parham Road Ste 101,Little Rock,AR,72205,9,"Private for-profit, less-than 2-year",29.0,31.0,60.0,,,,,,,,,,,,,,,,,,,,,,,,,,,,,,,,,,1,1,1,34.7532664,-92.3673132
106360001,Arthur's Beauty College,2363502,Arthurs Beauty College-Fort Smith,2000 NORTH B ST,FORT SMITH,AR,729013342,9,"Private for-profit, less-than 2-year",1.0,15.0,16.0,,,,,,,,,,,,,,,,,,,,,,,0.0,0.0,0.0,0.0,0.0,0.0,0.0,0.0,0.0,0.0,0.0,1,1,1,32.017348,-102.089415
106397001,University of Arkansas,110800,Main Campus,ADMINISTRATION BLDG 425,FAYETTEVILLE,AR,727011201,1,"Public, 4-year or above",13701.0,17235.0,30936.0,0.0,0.0,0.0,0.0,0.0,0.0,0.0,0.0,1.0,18.0,0.0,0.0,0.0,2.0,0.0,0.0,0.0,0.0,0.0,0.0,4.0,0.0,0.0,0.0,2.0,0.0,0.0,0.0,0.0,0.0,5.0,4.0,0.0,1,1,1,,
106412001,University of Arkansas at Pine Bluff,108600,UAPB - University of Arkansas at Pine Bluff,1200 N UNIVERSITY MAIL SLOT 4789,PINE BLUFF,AR,716014789,1,"Public, 4-year or above",1050.0,1337.0,2387.0,,,,,,,,,,,,0.0,0.0,0.0,0.0,0.0,0.0,0.0,0.0,2.0,2.0,1.0,0.0,0.0,0.0,0.0,0.0,0.0,0.0,0.0,0.0,0.0,0.0,1,1,1,,
106412002,University of Arkansas at Pine Bluff,108600,UAPB-North Little Rock Campus,1333 Main St.,North Little Rock,AR,72114,1,"Public, 4-year or above",1050.0,1337.0,2387.0,,,,,,,,,,,,0.0,0.0,0.0,0.0,0.0,0.0,0.0,0.0,0.0,0.0,0.0,0.0,0.0,0.0,0.0,0.0,0.0,0.0,0.0,0.0,0.0,0.0,1,1,1,,
106449001,Arkansas State University-Beebe,109100,Main Campus,1000 IOWA STREET,BEEBE,AR,720121000,4,"Public, 2-year",1188.0,1740.0,2928.0,,,,,,,,,,,,0.0,0.0,0.0,0.0,0.0,0.0,0.0,0.0,0.0,0.0,0.0,,,,,,,,,,,,1,1,1,38.9658145,-95.2600639739881
106449002,Arkansas State University-Beebe,109100,ASU-Heber Springs Campus,101 River Crest,Heber Springs,AR,72543,4,"Public, 2-year",1188.0,1740.0,2928.0,,,,,,,,,,,,,,,,,,,,,,,,,,,,,,,,,,1,1,1,32.5605454,-85.0017646
106449003,Arkansas State University-Beebe,109100,ASU-Searcy Campus,1800 East Moore Avenue / PO Box 909,Searcy,AR,72145,4,"Public, 2-year",1188.0,1740.0,2928.0,,,,,,,,,,,,,,,,,,,,,,,,,,,,,,,,,,1,1,1,,
106449004,Arkansas State University-Beebe,109100,ASU-LRAFB,"1490 Vandenburg Blvd, Suite 115 / PO Box 1235",Jacksonville,AR,72078,4,"Public, 2-year",1188.0,1740.0,2928.0,,,,,,,,,,,,,,,,,,,,,,,,,,,,,,,,,,1,1,1,,
106458001,Arkansas State University,109000,Arkansas State University-Jonesboro,PO Box 10,State University,AR,72467,1,"Public, 4-year or above",4593.0,8597.0,13190.0,0.0,0.0,0.0,0.0,0.0,0.0,0.0,0.0,0.0,0.0,0.0,0.0,0.0,0.0,0.0,0.0,0.0,0.0,0.0,1.0,0.0,0.0,0.0,0.0,0.0,0.0,0.0,0.0,0.0,0.0,0.0,0.0,0.0,1,1,1,,
106467001,Arkansas Tech University,108900,Main Campus,"Ross Pendergraft Library, 305 W Q Street",RUSSELLVILLE,AR,728012222,1,"Public, 4-year or above",3985.0,5460.0,9445.0,0.0,0.0,0.0,0.0,0.0,0.0,0.0,0.0,0.0,0.0,0.0,0.0,0.0,0.0,0.0,0.0,0.0,0.0,0.0,0.0,0.0,0.0,0.0,0.0,0.0,0.0,0.0,0.0,0.0,0.0,0.0,0.0,0.0,1,1,1,,
106467002,Arkansas Tech University,108900,Arkansas Tech University - Ozark Campus,1700 Helberg Lane,Ozark,AR,72949,1,"Public, 4-year or above",3985.0,5460.0,9445.0,0.0,0.0,0.0,0.0,0.0,0.0,0.0,0.0,0.0,0.0,0.0,0.0,0.0,0.0,0.0,0.0,0.0,0.0,0.0,0.0,0.0,0.0,0.0,0.0,0.0,0.0,0.0,0.0,0.0,0.0,0.0,0.0,0.0,1,1,1,35.49708424442222,-93.84283300792421
106467003,Arkansas Tech University,108900,Arkansas Tech Career Center,2201 South Knoxville Avenue,Russellville,AR,72802,1,"Public, 4-year or above",3985.0,5460.0,9445.0,,,,,,,,,,,,,,,,,,,,,,,0.0,0.0,0.0,0.0,0.0,0.0,0.0,0.0,0.0,0.0,0.0,0,0,1,35.258234,-93.120896
106485001,University of Arkansas at Monticello,108500,University of Arkansas at Monticello,350 University Dr,Monticello,AR,71656,1,"Public, 4-year or above",1085.0,1634.0,2719.0,0.0,0.0,0.0,0.0,0.0,0.0,0.0,0.0,0.0,0.0,0.0,0.0,0.0,0.0,0.0,0.0,0.0,0.0,0.0,0.0,0.0,0.0,0.0,0.0,0.0,0.0,0.0,0.0,0.0,0.0,0.0,0.0,0.0,1,1,1,33.9372549,-83.3796588
106485002,University of Arkansas at Monticello,108500,Crossett COT,1326 Highway 52 W,Crossett,AR,71635,1,"Public, 4-year or above",1085.0,1634.0,2719.0,0.0,0.0,0.0,0.0,0.0,0.0,0.0,0.0,0.0,0.0,0.0,0.0,0.0,0.0,0.0,0.0,0.0,0.0,0.0,0.0,0.0,0.0,0.0,0.0,0.0,0.0,0.0,0.0,0.0,0.0,0.0,0.0,0.0,1,1,1,,
106485003,University of Arkansas at Monticello,108500,McGehee COT,1609 East Ash Street,McGehee,AR,71654,1,"Public, 4-year or above",1085.0,1634.0,2719.0,0.0,0.0,0.0,0.0,0.0,0.0,0.0,0.0,0.0,0.0,0.0,0.0,0.0,0.0,0.0,0.0,0.0,0.0,0.0,0.0,0.0,0.0,0.0,0.0,0.0,0.0,0.0,0.0,0.0,0.0,0.0,0.0,0.0,1,1,1,38.26677924489796,-104.58207202040816
106494001,Arthur's Beauty College,2538503,"Arthur's Beauty College, Inc.-Jacksonville",2600 JOHN HARDEN DR,JACKSONVILLE,AR,72076,9,"Private for-profit, less-than 2-year",0.0,37.0,37.0,,,,,,,,,,,,,,,,,,,,,,,,,,,,,,,,,,1,1,1,34.890632,-92.103677
106546001,Baptist Health College Little Rock,3105200,Main Campus,11900 COL GLENN RD STE 1000,LITTLE ROCK,AR,722102820,5,"Private nonprofit, 2-year",54.0,495.0,549.0,0.0,0.0,0.0,0.0,0.0,0.0,0.0,0.0,0.0,4.0,0.0,0.0,0.0,0.0,0.0,0.0,0.0,0.0,0.0,0.0,6.0,0.0,0.0,0.0,0.0,0.0,0.0,0.0,0.0,0.0,0.0,3.0,0.0,1,1,1,,
106625001,Black River Technical College,2052200,Main Campus,1410 HWY 304 East,POCAHONTAS,AR,72455,4,"Public, 2-year",586.0,980.0,1566.0,,,,,,,,,,,,,,,,,,,,,,,0.0,0.0,0.0,0.0,0.0,0.0,0.0,0.0,0.0,0.0,0.0,1,1,1,36.24086095,-90.95183510522331
106625002,Black River Technical College,2052200,Black River Technical College Paragould,2402 N 12th Ave,Paragould,AR,72450,4,"Public, 2-year",586.0,980.0,1566.0,,,,,,,,,,,,,,,,,,,,,,,0.0,0.0,0.0,0.0,0.0,0.0,0.0,0.0,0.0,0.0,0.0,1,1,1,,
106704001,University of Central Arkansas,109200,Main Campus,201 DONAGHEY AVE,CONWAY,AR,720350001,1,"Public, 4-year or above",3530.0,6383.0,9913.0,0.0,0.0,0.0,0.0,0.0,0.0,0.0,1.0,0.0,0.0,0.0,0.0,0.0,0.0,0.0,0.0,0.0,0.0,0.0,0.0,0.0,0.0,0.0,0.0,0.0,0.0,0.0,0.0,0.0,0.0,0.0,0.0,0.0,1,1,1,35.07764105,-92.45799264108024
106713001,Central Baptist College,109300,Central Baptist College,1501 COLLEGE AVE,CONWAY,AR,72034,2,"Private nonprofit, 4-year or above",312.0,252.0,564.0,,,,,,,,,,,,0.0,0.0,0.0,0.0,0.0,0.0,0.0,0.0,0.0,0.0,0.0,0.0,0.0,0.0,0.0,0.0,0.0,0.0,0.0,0.0,0.0,0.0,1,1,1,36.1952943,-115.16117073601606
106795001,Cossatot Community College of the University of Arkansas,2220900,Sevier County Campus (Main),183 College Drive,DE QUEEN,AR,71832,4,"Public, 2-year",462.0,816.0,1278.0,0.0,0.0,0.0,0.0,0.0,0.0,0.0,0.0,0.0,0.0,0.0,0.0,0.0,0.0,0.0,0.0,0.0,0.0,0.0,0.0,0.0,0.0,,,,,,,,,,,,1,1,1,39.54126802887785,-119.81954647277038
106795002,Cossatot Community College of the University of Arkansas,2220900,Howard County Campus,1558 Highway 371 West,Nashville,AR,71852,4,"Public, 2-year",462.0,816.0,1278.0,0.0,0.0,0.0,0.0,0.0,0.0,0.0,0.0,0.0,0.0,0.0,0.0,0.0,0.0,0.0,0.0,0.0,0.0,0.0,0.0,0.0,0.0,,,,,,,,,,,,1,1,1,,
106795003,Cossatot Community College of the University of Arkansas,2220900,Little River Campus,1411 North Constitution Avenue,Ashdown,AR,71822,4,"Public, 2-year",462.0,816.0,1278.0,,,,,,,,,,,,,,,,,,,,,,,,,,,,,,,,,,1,1,1,33.68462012052296,-94.13592743482542
106810001,Crowley's Ridge College,109500,Main Campus,100 COLLEGE DR,PARAGOULD,AR,72450,2,"Private nonprofit, 4-year or above",103.0,98.0,201.0,,,,,,,,,,,,,,,,,,,,,,,,,,,,,,,,,,1,1,1,40.5851131,-75.52253097941599
106883001,East Arkansas Community College,1226000,East Arkansas Community College,1700 NEWCASTLE RD,FORREST CITY,AR,72335,4,"Public, 2-year",392.0,787.0,1179.0,0.0,0.0,0.0,0.0,0.0,0.0,0.0,0.0,0.0,0.0,0.0,0.0,0.0,0.0,0.0,0.0,0.0,0.0,0.0,0.0,0.0,0.0,0.0,0.0,0.0,0.0,0.0,0.0,0.0,0.0,0.0,0.0,0.0,1,1,1,,
106908001,Paul Mitchell the School-Little Rock,3124900,"Paul Mitchell the School - Little Rock (Main Campus, North Little Rock, AR)",4201 E McCain Blvd,North Little Rock,AR,72117,9,"Private for-profit, less-than 2-year",17.0,341.0,358.0,,,,,,,,,,,,,,,,,,,,,,,,,,,,,,,,,,1,1,1,34.789526,-92.222844
106908002,Paul Mitchell the School-Little Rock,3124900,Paul Mitchell the School - Norman,3030 William Pereira,Norman,OK,73072,9,"Private for-profit, less-than 2-year",17.0,341.0,358.0,0.0,0.0,0.0,0.0,0.0,0.0,0.0,0.0,0.0,0.0,0.0,,,,,,,,,,,,,,,,,,,,,,,1,1,1,35.21427995918367,-97.48592512244899
106980001,National Park College,1210500,Main Campus,101 COLLEGE DR,HOT SPRINGS NATIONAL PARK,AR,71913,4,"Public, 2-year",961.0,1379.0,2340.0,0.0,0.0,0.0,0.0,0.0,0.0,0.0,0.0,0.0,0.0,0.0,0.0,0.0,0.0,0.0,0.0,0.0,0.0,0.0,0.0,0.0,0.0,0.0,0.0,0.0,0.0,0.0,0.0,0.0,0.0,0.0,0.0,0.0,1,1,1,40.11563253449158,-85.66714370745215
106999001,University of Arkansas Community College-Batesville,2073500,Main Campus,"2005 White Drive, PO BOX 3350",Batesville,AR,725033350,4,"Public, 2-year",343.0,665.0,1008.0,0.0,0.0,0.0,0.0,0.0,0.0,0.0,0.0,0.0,0.0,0.0,0.0,0.0,0.0,0.0,0.0,0.0,0.0,0.0,0.0,0.0,0.0,,,,,,,,,,,,1,1,1,,
107044001,Harding University,109700,Main Campus,900 E. Center,Searcy,AR,72149,2,"Private nonprofit, 4-year or above",2015.0,2790.0,4805.0,0.0,0.0,0.0,0.0,0.0,0.0,0.0,0.0,0.0,0.0,0.0,0.0,0.0,0.0,0.0,0.0,0.0,0.0,0.0,0.0,0.0,0.0,0.0,0.0,0.0,0.0,0.0,0.0,0.0,0.0,0.0,0.0,0.0,1,1,1,,
107044003,Harding University,109700,Harding University Northwest Arkansas,901 South 52nd Street,Rogers,AR,72758,2,"Private nonprofit, 4-year or above",2015.0,2790.0,4805.0,,,,,,,,,,,,,,,,,,,,,,,,,,,,,,,,,,1,1,1,40.80669907537688,-96.64903426130654
107044004,Harding University,109700,Harding University-Athens Greece,37 KLM Porto Rafti Avenue,Markopoulo Attiki,,19003,2,"Private nonprofit, 4-year or above",2015.0,2790.0,4805.0,0.0,0.0,0.0,0.0,0.0,0.0,0.0,0.0,0.0,0.0,0.0,0.0,0.0,0.0,0.0,0.0,0.0,0.0,0.0,0.0,0.0,0.0,0.0,0.0,0.0,0.0,0.0,0.0,0.0,0.0,0.0,0.0,0.0,1,1,1,,
107044005,Harding University,109700,Harding University-Florence Italy,Via Triozzi 57,Scandicci Firenze,,50018,2,"Private nonprofit, 4-year or above",2015.0,2790.0,4805.0,,,,,,,,,,,,,,,,,,,,,,,,,,,,,,,,,,1,1,1,43.7458272,11.1630903
107044006,Harding University,109700,Graduate School of Religion,1000 Cherry Road,Memphis,TN,38117,2,"Private nonprofit, 4-year or above",2015.0,2790.0,4805.0,,,,,,,,,,,,,,,,,,,,,,,,,,,,,,,,,,1,1,1,35.23091974604193,-89.62080660687138
107044007,Harding University,109700,Harding University Australasia - HUA,"Main Beach LPO, P.O.Box 766",Main Beach QLD,,4217,2,"Private nonprofit, 4-year or above",2015.0,2790.0,4805.0,,,,,,,,,,,,,,,,,,,,,,,,,,,,,,,,,,1,1,1,,
107044009,Harding University,109700,Harding University Latin America (HULA) Chile,Posada el Castillo Campos 105 Arequipa,Arequipa,, 04001,2,"Private nonprofit, 4-year or above",2015.0,2790.0,4805.0,,,,,,,,,,,,,,,,,,,,,,,,,,,,,,,,,,1,1,1,-16.4108686,-71.5448404
107044010,Harding University,109700,Harding University Zambia (HIZ),"Namwianga Mission, PO Box 620022",Kalomo,,20100,2,"Private nonprofit, 4-year or above",2015.0,2790.0,4805.0,,,,,,,,,,,,,,,,,,,,,,,,,,,,,,,,,,1,1,1,,
107044011,Harding University,109700,Harding University England (HUE),"C/O Florida State, 103 Great Russell Street",London,,0,2,"Private nonprofit, 4-year or above",2015.0,2790.0,4805.0,,,,,,,,,,,,,,,,,,,,,,,,,,,,,,,,,,1,1,1,,
107071001,Henderson State University,109800,Henderson State University,1100 HENDERSON ST,ARKADELPHIA,AR,719990001,1,"Public, 4-year or above",1009.0,1510.0,2519.0,0.0,0.0,0.0,0.0,0.0,0.0,0.0,0.0,0.0,0.0,0.0,0.0,0.0,0.0,0.0,0.0,0.0,0.0,0.0,0.0,0.0,0.0,0.0,0.0,0.0,0.0,0.0,0.0,0.0,0.0,0.0,0.0,0.0,1,1,1,,
107080001,Hendrix College,109900,Main Campus,1600 WASHINGTON AVE,CONWAY,AR,720323080,2,"Private nonprofit, 4-year or above",568.0,576.0,1144.0,,,,,,,,,,,,,,,,,,,,,,,,,,,,,,,,,,1,1,1,,
107099001,Hot Springs Beauty College,3007100,Hot Springs Beauty College,100 Cones Rd,HOT SPRINGS,AR,71901,9,"Private for-profit, less-than 2-year",5.0,85.0,90.0,,,,,,,,,,,,,,,,,,,,,,,,,,,,,,,,,,1,1,1,35.439312,-88.570708
107123001,Jefferson Regional School of Nursing,2330800,Main Campus,1600 West 40th,PINE BLUFF,AR,71603,5,"Private nonprofit, 2-year",17.0,52.0,69.0,,,,,,,,,,,,,,,,,,,,,,,,,,,,,,,,,,1,1,1,,
107141001,John Brown University,110000,Main Campus,2000 W UNIVERSITY ST,SILOAM SPRINGS,AR,727612121,2,"Private nonprofit, 4-year or above",892.0,1434.0,2326.0,0.0,0.0,0.0,0.0,0.0,0.0,0.0,0.0,0.0,0.0,0.0,0.0,0.0,0.0,0.0,0.0,0.0,0.0,0.0,0.0,0.0,0.0,0.0,0.0,0.0,0.0,0.0,0.0,0.0,0.0,0.0,0.0,0.0,1,1,1,36.18812045,-94.558932581428
107141003,John Brown University,110000,Rogers Center,"2807 Ajax Avenue, Suite 200",Rogers,AR,72758,2,"Private nonprofit, 4-year or above",892.0,1434.0,2326.0,,,,,,,,,,,,,,,,,,,,,,,,,,,,,,,,,,1,1,1,-34.4108238,150.8925534
107141004,John Brown University,110000,Little Rock Center,"10816 Executive Center Drive, Suite 100",Little Rock,AR,72211,2,"Private nonprofit, 4-year or above",892.0,1434.0,2326.0,,,,,,,,,,,,,,,,,,,,,,,,,,,,,,,,,,1,1,1,41.5496398,-73.4186939
107141005,John Brown University,110000,Ireland Center,157 Finaghy Road South,Belfast,,BT1O ODA,2,"Private nonprofit, 4-year or above",892.0,1434.0,2326.0,,,,,,,,,,,,,,,,,,,,,,,,,,,,,,,,,,1,1,1,54.5519367,-5.97829748171689
107220001,Career Academy of Hair Design,2341700,Career Academy of Hair Design,346 E Robinson Ave,Springdale,AR,727647128,9,"Private for-profit, less-than 2-year",5.0,225.0,230.0,,,,,,,,,,,,,,,,,,,,,,,,,,,,,,,,,,1,1,1,36.16762405,-94.12943274918649
107220002,Career Academy of Hair Design,2341700,Rogers Campus,2100 W HUDSON RD STE 10,"Rogers, AR",AR,72756,9,"Private for-profit, less-than 2-year",5.0,225.0,230.0,,,,,,,,,,,,,,,,,,,,,,,,,,,,,,,,,,1,1,1,,
107220003,Career Academy of Hair Design,2341700,Siloam Springs,2100 West Hudson Rd suite 5,"Rogers, AR",AR,72756,9,"Private for-profit, less-than 2-year",5.0,225.0,230.0,,,,,,,,,,,,,,,,,,,,,,,,,,,,,,,,,,1,1,1,,
107220004,Career Academy of Hair Design,2341700,Fayetteville Campus,2100 West Hudson Rd suite 5,"Rogers, AR",AR,72756,9,"Private for-profit, less-than 2-year",5.0,225.0,230.0,,,,,,,,,,,,,,,,,,,,,,,,,,,,,,,,,,1,1,1,,
107220005,Career Academy of Hair Design,2341700,Fort Smith Campus,2100 West Hudson Rd suite 5,White/ caucasian,AR,72756,9,"Private for-profit, less-than 2-year",5.0,225.0,230.0,,,,,,,,,,,,,,,,,,,,,,,,,,,,,,,,,,1,1,1,,
107293001,Academy of Salon and Spa,1074100,Mellie's Inc. - Academy of Salon & Spa,311 S 16TH ST,FORT SMITH,AR,72901,9,"Private for-profit, less-than 2-year",0.0,67.0,67.0,0.0,0.0,0.0,0.0,0.0,0.0,0.0,0.0,0.0,0.0,0.0,0.0,0.0,0.0,0.0,0.0,0.0,0.0,0.0,0.0,0.0,0.0,,,,,,,,,,,,1,1,1,,
107318001,Arkansas State University Mid-South,2348200,Main Campus,2000 W.  BROADWAY,WEST MEMPHIS,AR,72301,4,"Public, 2-year",389.0,590.0,979.0,,,,,,,,,,,,,,,,,,,,,,,,,,,,,,,,,,1,1,1,,
107327001,Arkansas Northeastern College,1286000,Arkansas Northeastern College,2501 S. Division,Blytheville,AR,723161109,4,"Public, 2-year",536.0,966.0,1502.0,0.0,0.0,0.0,0.0,0.0,0.0,0.0,0.0,0.0,0.0,0.0,0.0,0.0,0.0,0.0,0.0,0.0,0.0,0.0,0.0,0.0,0.0,0.0,0.0,0.0,0.0,0.0,0.0,0.0,0.0,0.0,0.0,0.0,1,1,1,,
107327002,Arkansas Northeastern College,1286000,Leachville Center,103 North Main Street,Leachville,AR,72438,4,"Public, 2-year",536.0,966.0,1502.0,0.0,0.0,0.0,0.0,0.0,0.0,0.0,0.0,0.0,0.0,0.0,0.0,0.0,0.0,0.0,0.0,0.0,0.0,0.0,0.0,0.0,0.0,,,,,,,,,,,,1,1,1,,
107327003,Arkansas Northeastern College,1286000,Osceola Center,2868 West Semmes Street,Osceola,AR,72370,4,"Public, 2-year",536.0,966.0,1502.0,0.0,0.0,0.0,0.0,0.0,0.0,0.0,0.0,0.0,0.0,0.0,0.0,0.0,0.0,0.0,0.0,0.0,0.0,0.0,0.0,0.0,0.0,,,,,,,,,,,,1,1,1,32.6081122,-90.0363921
107442001,New Tyler Barber College Inc,2284200,Main Campus,1221 E 7TH ST,NORTH LITTLE ROCK,AR,721144973,9,"Private for-profit, less-than 2-year",15.0,13.0,28.0,,,,,,,,,,,,,,,,,,,,,,,,,,,,,,,,,,1,1,1,,
107460001,North Arkansas College,1226100,South Campus,1515 PIONEER DR.,HARRISON,AR,72601,4,"Public, 2-year",836.0,1020.0,1856.0,,,,,,,,,,,,0.0,0.0,0.0,0.0,0.0,0.0,0.0,0.0,0.0,0.0,0.0,0.0,0.0,0.0,0.0,0.0,0.0,0.0,0.0,0.0,0.0,0.0,1,1,1,,
107488001,Northwest Technical Institute,2073700,Main Campus,709 S OLD MISSOURI RD,SPRINGDALE,AR,72764,7,"Public, less-than 2-year",146.0,55.0,201.0,,,,,,,,,,,,,,,,,,,,,,,,,,,,,,,,,,1,1,1,36.1781481,-94.11423658084726
107512001,Ouachita Baptist University,110200,Main Campus,410 OUACHITA ST,ARKADELPHIA,AR,719980001,2,"Private nonprofit, 4-year or above",731.0,1053.0,1784.0,,,,,,,,,,,,,,,,,,,,,,,,,,,,,,,,,,1,1,1,34.1307617,-93.05250677656251
107521001,Arkansas State University Three Rivers,997600,Main Campus,ONE COLLEGE CIR,MALVERN,AR,72104,4,"Public, 2-year",893.0,939.0,1832.0,0.0,0.0,0.0,0.0,0.0,0.0,0.0,0.0,0.0,0.0,0.0,0.0,0.0,0.0,0.0,0.0,0.0,0.0,0.0,0.0,0.0,0.0,0.0,0.0,0.0,0.0,0.0,0.0,0.0,0.0,0.0,0.0,0.0,1,1,1,,
107549001,Ozarka College,2087000,Main Campus,218 COLLEGE DR,MELBOURNE,AR,72556,4,"Public, 2-year",322.0,661.0,983.0,,,,,,,,,,,,,,,,,,,,,,,,,,,,,,,,,,1,1,1,39.95686455,-74.68193149999999
107549002,Ozarka College,2087000,Ozarka College-Mountain View,1800 College Drive,Mountain View,AR,72560,4,"Public, 2-year",322.0,661.0,983.0,,,,,,,,,,,,,,,,,,,,,,,,,,,,,,,,,,1,1,1,45.481483100000005,-91.74162143660122
107549003,Ozarka College,2087000,Ozarka College-Ash Flat,64 College Drive,Ash Flat,AR,72513,4,"Public, 2-year",322.0,661.0,983.0,,,,,,,,,,,,,,,,,,,,,,,,,,,,,,,,,,1,1,1,53.362260899999995,-3.0057264499999983
107549005,Ozarka College,2087000,Ozarka College Carpenter Technical Center,16 Nix Ridge Rd.,Ash Flat,AR,72513,4,"Public, 2-year",322.0,661.0,983.0,,,,,,,,,,,,,,,,,,,,,,,,,,,,,,,,,,0,1,1,35.0990152942624,-83.04966723557398
107558001,University of the Ozarks,109400,Main Campus,415 N. College Ave.,Clarksville,AR,72830,2,"Private nonprofit, 4-year or above",374.0,410.0,784.0,0.0,0.0,1.0,0.0,0.0,0.0,0.0,0.0,0.0,0.0,0.0,,,,,,,,,,,,0.0,0.0,0.0,0.0,0.0,0.0,0.0,0.0,0.0,0.0,0.0,1,1,1,35.47914765,-93.46575658958028
107585001,University of Arkansas Community College-Morrilton,524500,Main Campus,1537 University Blvd.,MORRILTON,AR,72110,4,"Public, 2-year",759.0,1129.0,1888.0,0.0,0.0,0.0,0.0,0.0,0.0,0.0,0.0,0.0,0.0,0.0,0.0,0.0,0.0,0.0,0.0,0.0,0.0,0.0,0.0,0.0,0.0,0.0,0.0,0.0,0.0,0.0,0.0,0.0,0.0,0.0,0.0,0.0,1,1,1,,
107600001,Philander Smith College,110300,Philander Smith College,900 DAISY BATES DRIVE,LITTLE ROCK,AR,722023799,2,"Private nonprofit, 4-year or above",318.0,451.0,769.0,0.0,0.0,0.0,0.0,0.0,0.0,0.0,0.0,0.0,0.0,0.0,0.0,0.0,0.0,0.0,0.0,0.0,0.0,0.0,0.0,0.0,0.0,0.0,0.0,0.0,0.0,0.0,0.0,0.0,0.0,0.0,0.0,0.0,1,1,1,34.736825,-92.283114
107619001,Phillips Community College of the University of Arkansas,110400,Main Campus,1000 CAMPUS DR,HELENA,AR,723420785,4,"Public, 2-year",451.0,783.0,1234.0,0.0,0.0,0.0,0.0,0.0,0.0,0.0,0.0,0.0,0.0,0.0,0.0,0.0,0.0,0.0,0.0,0.0,0.0,0.0,0.0,0.0,0.0,0.0,0.0,0.0,0.0,0.0,0.0,0.0,0.0,0.0,0.0,0.0,1,1,1,41.1932126,-81.461561
107619002,Phillips Community College of the University of Arkansas,110400,"Phillips Comm Coll, Stuttgart, AR","2807 Highway 165 S., Box A",STUTTGART,AR,72160,4,"Public, 2-year",451.0,783.0,1234.0,0.0,0.0,0.0,0.0,0.0,0.0,0.0,0.0,0.0,0.0,0.0,0.0,0.0,0.0,0.0,0.0,0.0,0.0,0.0,0.0,0.0,0.0,0.0,0.0,0.0,0.0,0.0,0.0,0.0,0.0,0.0,0.0,0.0,1,1,1,,
107619003,Phillips Community College of the University of Arkansas,110400,"Phillips Comm Coll, Dewitt, AR",1210 Rice Belt,DEWITT,AR,72042,4,"Public, 2-year",451.0,783.0,1234.0,0.0,0.0,0.0,0.0,0.0,0.0,0.0,0.0,0.0,0.0,0.0,0.0,0.0,0.0,0.0,0.0,0.0,0.0,0.0,0.0,0.0,0.0,,,,,,,,,,,,1,1,1,30.018294,-94.561429
107637001,Southeast Arkansas College,570700,Main Campus,1900 Hazel St.,Pine Bluff,AR,71603,4,"Public, 2-year",248.0,650.0,898.0,0.0,0.0,0.0,0.0,0.0,0.0,0.0,1.0,0.0,0.0,0.0,0.0,0.0,0.0,0.0,0.0,0.0,0.0,0.0,0.0,0.0,0.0,0.0,0.0,0.0,0.0,0.0,0.0,0.0,0.0,0.0,0.0,0.0,1,1,1,,
107655001,Professional Cosmetology Education Center,2202400,Main Campus,460 N Washington Ave,El Dorado,AR,71730,9,"Private for-profit, less-than 2-year",0.0,27.0,27.0,,,,,,,,,,,,,,,,,,,,,,,,,,,,,,,,,,1,1,1,43.6811104,-114.3660048
107664001,University of Arkansas-Pulaski Technical College,2075300,University of Arkansas Pulaski Technical College,3000 W SCENIC DR,NORTH LITTLE ROCK,AR,72118,4,"Public, 2-year",1431.0,2814.0,4245.0,0.0,0.0,0.0,0.0,0.0,0.0,0.0,0.0,0.0,0.0,0.0,0.0,0.0,0.0,0.0,0.0,0.0,0.0,0.0,0.0,0.0,0.0,0.0,0.0,0.0,0.0,0.0,0.0,0.0,0.0,0.0,0.0,0.0,1,1,1,,
107725001,University of Arkansas Hope-Texarkana,573200,Hope Campus,2500 S MAIN,HOPE,AR,71801,4,"Public, 2-year",406.0,782.0,1188.0,0.0,0.0,0.0,0.0,0.0,0.0,0.0,0.0,0.0,0.0,0.0,0.0,0.0,0.0,0.0,0.0,0.0,0.0,0.0,0.0,0.0,0.0,0.0,0.0,0.0,0.0,0.0,0.0,0.0,0.0,0.0,0.0,0.0,1,1,1,40.71621715,-111.88922004374999
107725002,University of Arkansas Hope-Texarkana,573200,University of Arkansas Community College-Texarkana,3501 U of A Way,Texarkana,AR,71854,4,"Public, 2-year",406.0,782.0,1188.0,0.0,0.0,0.0,0.0,0.0,0.0,0.0,0.0,0.0,0.0,0.0,,,,,,,,,,,,,,,,,,,,,,,1,1,1,,
107743001,University of Arkansas Community College Rich Mountain,2111100,University of Arkansas at Rich Mountain,1100 COLLEGE DR,MENA,AR,71953,4,"Public, 2-year",254.0,425.0,679.0,0.0,0.0,0.0,0.0,0.0,0.0,0.0,0.0,0.0,0.0,0.0,0.0,0.0,0.0,0.0,0.0,0.0,0.0,0.0,0.0,0.0,0.0,0.0,0.0,0.0,0.0,0.0,0.0,0.0,0.0,0.0,0.0,0.0,1,1,1,34.5912169,-94.2202104
107789001,Paul Mitchell the School-Arkansas,792100,Main Campus,4156 N Steele Blvd,FAYETTEVILLE,AR,72703,9,"Private for-profit, less-than 2-year",1.0,108.0,109.0,,,,,,,,,,,,,,,,,,,,,,,,,,,,,,,,,,1,1,1,36.1263965,-94.15387339423077
107831001,Searcy Beauty College,2569600,Searcy Beauty College,1004 S Main St,Searcy,AR,72143,9,"Private for-profit, less-than 2-year",1.0,83.0,84.0,,,,,,,,,,,,,,,,,,,,,,,,,,,,,,,,,,1,1,1,,
107840001,Shorter College,110500,Main Campus,604 Locust St,North Little Rock,AR,72114,5,"Private nonprofit, 2-year",126.0,195.0,321.0,,,,,,,,,,,,0.0,0.0,0.0,0.0,0.0,0.0,0.0,0.0,0.0,0.0,0.0,0.0,0.0,0.0,0.0,0.0,0.0,0.0,0.0,0.0,0.0,0.0,1,1,1,,
107877001,Williams Baptist University,110600,Williams Baptist University,60 W Fulbright Avenue,Walnut Ridge,AR,72476,2,"Private nonprofit, 4-year or above",272.0,312.0,584.0,,,,,,,,,,,,,,,,,,,,,,,0.0,0.0,0.0,0.0,0.0,0.0,0.0,0.0,0.0,0.0,0.0,1,1,1,34.0453706,-117.1912028
107974001,South Arkansas Community College,2074600,Main Campus (West),300 S WEST AVE,EL DORADO,AR,717317010,4,"Public, 2-year",370.0,792.0,1162.0,,,,,,,,,,,,,,,,,,,,,,,,,,,,,,,,,,1,1,1,,
107974002,South Arkansas Community College,2074600,East Campus,3696 East Main,EL DORADO,AR,71730,4,"Public, 2-year",370.0,792.0,1162.0,,,,,,,,,,,,,,,,,,,,,,,0.0,0.0,0.0,0.0,0.0,0.0,0.0,0.0,0.0,0.0,0.0,1,1,1,45.6783158,-111.0180393
107974003,South Arkansas Community College,2074600,Warren Campus,204 North Bragg,Warren,AR,71671,4,"Public, 2-year",370.0,792.0,1162.0,,,,,,,,,,,,,,,,,,,,,,,,,,,,,,,,,,1,1,1,35.168036553999414,-78.9729512818283
107983001,Southern Arkansas University Main Campus,110700,Main Campus,100 E. University Street,MAGNOLIA,AR,71754,1,"Public, 4-year or above",2296.0,2798.0,5094.0,0.0,0.0,0.0,0.0,0.0,0.0,0.0,0.0,0.0,0.0,0.0,0.0,0.0,0.0,0.0,0.0,0.0,0.0,0.0,0.0,0.0,0.0,0.0,0.0,0.0,0.0,0.0,0.0,0.0,0.0,0.0,0.0,0.0,1,1,1,33.293729,-93.23282739939236
107992001,Southern Arkansas University Tech,773800,Main Campus,6415 Spellman Road,Camden,AR,71701,4,"Public, 2-year",409.0,534.0,943.0,0.0,0.0,0.0,0.0,0.0,0.0,0.0,0.0,0.0,0.0,0.0,0.0,0.0,0.0,0.0,0.0,0.0,0.0,0.0,0.0,0.0,0.0,0.0,0.0,0.0,0.0,0.0,0.0,0.0,0.0,0.0,0.0,0.0,1,1,1,29.656764634317113,-95.50498235527785
108065001,Velvatex College of Beauty Culture,3214300,Velvatex College of Beauty Culture,1520 MARTIN LUTHER KING DR,LITTLE ROCK,AR,722025452,9,"Private for-profit, less-than 2-year",0.0,14.0,14.0,,,,,,,,,,,,,,,,,,,,,,,,,,,,,,,,,,1,1,1,,
108092001,University of Arkansas-Fort Smith,111000,Main Campus,5210 Grand Ave,Fort Smith,AR,729133649,1,"Public, 4-year or above",2166.0,3213.0,5379.0,0.0,0.0,4.0,0.0,0.0,0.0,0.0,0.0,0.0,0.0,0.0,0.0,0.0,0.0,0.0,0.0,0.0,0.0,0.0,0.0,0.0,0.0,0.0,0.0,0.0,0.0,0.0,0.0,0.0,0.0,0.0,0.0,0.0,1,1,1,,
108232001,Academy of Art University,753100,Main Campus,79 NEW MONTGOMERY,SAN FRANCISCO,CA,94105,3,"Private for-profit, 4-year or above",2695.0,4091.0,6786.0,,,,,,,,,,,,,,,,,,,,,,,,,,,,,,,,,,1,1,1,37.776019000000005,-122.39870869233974
108269001,Academy of Chinese Culture and Health Sciences,3288300,Main Campus,1600 Broadway Ste. 200,OAKLAND,CA,94612,2,"Private nonprofit, 4-year or above",33.0,78.0,111.0,,,,,,,,,,,,,,,,,,,,,,,,,,,,,,,,,,1,1,1,,
108667001,College of Alameda,672000,Main Campus,555 Ralph Appezzato Memorial Parkway,ALAMEDA,CA,94501,4,"Public, 2-year",2409.0,3264.0,5673.0,,,,,,,,,,,,0.0,0.0,0.0,0.0,0.0,0.0,0.0,0.0,0.0,0.0,0.0,0.0,0.0,0.0,0.0,0.0,0.0,0.0,0.0,3.0,1.0,0.0,1,1,1,37.78246115,-122.27939789367927
108807001,Allan Hancock College,111100,Santa Maria,800 S. College Drive,Santa Maria,CA,934546399,4,"Public, 2-year",4802.0,5527.0,10329.0,0.0,0.0,2.0,2.0,0.0,0.0,4.0,11.0,8.0,6.0,0.0,0.0,0.0,0.0,0.0,0.0,0.0,0.0,1.0,0.0,0.0,0.0,0.0,0.0,0.0,0.0,0.0,0.0,3.0,1.0,7.0,0.0,0.0,1,1,1,34.9432733,-120.4231031287199
108807002,Allan Hancock College,111100,Lompoc Valley Center,One Hancock Drive,Lompoc,CA,934362755,4,"Public, 2-year",4802.0,5527.0,10329.0,0.0,0.0,0.0,0.0,0.0,0.0,0.0,1.0,1.0,1.0,0.0,,,,,,,,,,,,0.0,0.0,0.0,0.0,0.0,0.0,0.0,0.0,0.0,0.0,0.0,1,1,1,,
108852001,American Academy of Dramatic Arts-Los Angeles,746501,Los Angeles - Main Campus,1336 N. La Brea Avenue,Los Angeles,CA,90028,5,"Private nonprofit, 2-year",93.0,127.0,220.0,,,,,,,,,,,,,,,,,,,,,,,,,,,,,,,,,,1,1,1,34.09502883673469,-118.34399167346939
